stop_id,stop_name,stop_lat,stop_lon,stop_code,stop_desc,zone_id,stop_url,location_type,parent_station,wheelchair_boarding,stop_direction,stop_timezone,vehicle_type,platform_code
created_stop_1,Stop 1,31.962783,35.960476,,Platform 11,,,0,,,,,,
created_stop_2,Stop 2,31.961461,35.960252,,شارع الملك عبدالله الأول,,,0,,,,,,
created_stop_3,Stop 3,31.959992,35.9589,,شارع الملك عبدالله الأول,,,0,,,,,,
created_stop_4,Stop 4,31.958691,35.957445,,شارع التاج,,,0,,,,,,
created_stop_5,Stop 5,31.9575,35.955926,,شارع الملك عبدالله الأول,,,0,,,,,,
created_stop_6,Stop 6,31.955856,35.954751,,جمعية العون الطبية,,,0,,,,,,
created_stop_7,Stop 7,31.954396,35.95344,,شارع الملك عبدالله الأول,,,0,,,,,,
created_stop_8,Stop 8,31.95371,35.951739,,شارع الملك عبدالله الأول,,,0,,,,,,
created_stop_9,Stop 9,31.954886,35.950342,,شارع الجيش,,,0,,,,,,
created_stop_10,Stop 10,31.954302,35.948613,,شارع الجيش,,,0,,,,,,
created_stop_11,Stop 11,31.953936,35.946839,,شارع الأردن,,,0,,,,,,
created_stop_12,Stop 12,31.953542,35.945068,,شارع الجيش,,,0,,,,,,
created_stop_13,Stop 13,31.95325,35.943284,,شارع الجيش,,,0,,,,,,
created_stop_14,Stop 14,31.953159,35.941488,,شارع الهاشمي,,,0,,,,,,
created_stop_15,Stop 15,31.953205,35.939689,,شارع الهاشمي,,,0,,,,,,
created_stop_16,Stop 16,31.952495,35.938026,,Amman Pasha Hotel,,,0,,,,,,
created_stop_17,Stop 17,31.951972,35.936287,,شارع الشابسوغ,,,0,,,,,,
created_stop_18,Stop 18,31.951462,35.93456,,,,,0,,,,,,
created_stop_19,Stop 19,31.952014,35.932898,,شارع الملك فيصل,,,0,,,,,,
created_stop_20,Stop 20,31.952212,35.931137,,Jo Post,,,0,,,,,,
created_stop_21,Stop 21,31.952631,35.929424,,مكتب ترجمة معتمده,,,0,,,,,,
created_stop_22,Stop 22,31.95228,35.92802,,,,,0,,,,,,
created_stop_23,Stop 23,31.952311,35.925918,,شارع الأمير محمد,,,0,,,,,,
created_stop_24,Stop 24,31.952918,35.924443,,,,,0,,,,,,
created_stop_25,Stop 25,31.954111,35.922032,,,,,0,,,,,,
created_stop_26,Stop 26,31.9541,35.921508,,,,,0,,,,,,
created_stop_27,Stop 27,31.95379,35.919262,,,,,0,,,,,,
created_stop_28,Stop 28,31.954079,35.917502,,,,,0,,,,,,
created_stop_29,Stop 29,31.954355,35.915617,,Al Misbah Plaza,,,0,,,,,,
created_stop_30,Stop 30,31.954998,35.914018,,Bank of Jordan,,,0,,,,,,
created_stop_31,Stop 31,31.954829,35.911953,,,,,0,,,,,,
created_stop_32,Stop 32,31.954364,35.910575,,شارع الشريف الحسين بن علي,,,0,,,,,,
created_stop_33,Stop 33,31.960977,35.876068,,شارع زهران,,,0,,,,,,
created_stop_34,Stop 34,31.953827,35.907032,,شارع فريد السعد,,,0,,,,,,
created_stop_35,Stop 35,31.954172,35.905256,,شارع زهران,,,0,,,,,,
created_stop_36,Stop 36,31.95452,35.903478,,شارع زهران,,,0,,,,,,
created_stop_37,Stop 37,31.954889,35.901703,,شارع زهران,,,0,,,,,,
created_stop_38,Stop 38,31.955267,35.89993,,,,,0,,,,,,
created_stop_39,Stop 39,31.955635,35.89738,,,,,0,,,,,,
created_stop_40,Stop 40,31.956087,35.896392,,الدوار الرابع,,,0,,,,,,
created_stop_41,Stop 41,31.956439,35.894615,,شارع زهران,,,0,,,,,,
created_stop_42,Stop 42,31.956804,35.89284,,,,,0,,,,,,
created_stop_43,Stop 43,31.957168,35.891064,,,,,0,,,,,,
created_stop_44,Stop 44,31.960613,35.8747,,,,,0,,,,,,
created_stop_45,Stop 45,31.957954,35.887433,,,,,0,,,,,,
created_stop_46,Stop 46,31.976305,35.905306,,,,,0,,,,,,
created_stop_47,Stop 47,31.959182,35.884124,,,,,0,,,,,,
created_stop_48,Stop 48,31.96016,35.882484,,شارع زهران,,,0,,,,,,
created_stop_49,Stop 49,31.975163,35.906717,,Regency Palace Hotel,,,0,,,,,,
created_stop_50,Stop 50,31.961077,35.87902,,شارع زهران,,,0,,,,,,
created_stop_51,Stop 51,31.960858,35.876949,,موقف باص بيولاب,,,0,,,,,,
created_stop_52,Stop 52,31.960977,35.876068,,شارع زهران,,,0,,,,,,
created_stop_53,Stop 53,31.957809,35.88737,,شارع زهران,,,0,,,,,,
created_stop_54,Stop 54,31.960586,35.87187,,Dana Plaza Hotel,,,0,,,,,,
created_stop_55,Stop 55,31.960426,35.870075,,شارع زهران,,,0,,,,,,
created_stop_56,Stop 56,31.960275,35.86828,,Mawwal Restaurant,,,0,,,,,,
created_stop_57,Stop 57,31.960127,35.866485,,شارع زهران,,,0,,,,,,
created_stop_58,Stop 58,31.959848,35.86476,,,,,0,,,,,,
created_stop_59,Stop 59,31.958336,35.885391,,Med Labs,,,0,,,,,,
created_stop_60,Stop 60,31.961264,35.879992,,,,,0,,,,,,
created_stop_61,Stop 61,31.95966,35.858897,,,,,0,,,,,,
created_stop_62,Stop 62,31.959552,35.857502,,الدوار السابع,,,0,,,,,,
created_stop_63,Stop 63,31.959313,35.855715,,شارع زهران,,,0,,,,,,
created_stop_64,Stop 64,31.958888,35.854536,,شارع زهران,,,0,,,,,,
created_stop_65,Stop 65,31.95965,35.858823,,,,,0,,,,,,
created_stop_66,Stop 66,31.960146,35.865565,,الجامع عند السابع,,,0,,,,,,
created_stop_67,Stop 67,31.959848,35.86476,,,,,0,,,,,,
created_stop_68,Stop 68,31.957494,35.846909,,باص الى صويلح (نقل الى جرش) - 0.4 دينار,,,0,,,,,,
created_stop_69,Stop 69,31.955862,35.845011,,,,,0,,,,,,
created_stop_70,Stop 70,31.955589,35.843411,,شارع حسني صوبر,,,0,,,,,,
created_stop_71,Stop 71,31.954992,35.841825,,,,,0,,,,,,
created_stop_72,Stop 72,31.954475,35.840076,,شارع جمال قيتوكة,,,0,,,,,,
created_stop_73,Stop 73,31.954396,35.839014,,,,,0,,,,,,
created_stop_74,Stop 74,31.953982,35.836506,,شارع أحمد عقلة النسور,,,0,,,,,,
created_stop_75,Stop 75,31.954118,35.834825,,شارع حسني صوبر,,,0,,,,,,
created_stop_76,Stop 76,31.954486,35.832901,,شارع ممدوح اسحاقات ممر 1,,,0,,,,,,
created_stop_77,Stop 77,31.955099,35.831234,,شارع وادي السير,,,0,,,,,,
created_stop_78,Stop 78,31.955804,35.832316,,شارع سالم رحيل,,,0,,,,,,
created_stop_79,Stop 79,31.953013,35.909897,,شارع عبد المنعم رياض,,,0,,,,,,
created_stop_80,Stop 80,31.951167,35.908904,,,,,0,,,,,,
created_stop_81,Stop 81,31.94927,35.907967,,شارع عبد المنعم رياض,,,0,,,,,,
created_stop_82,Stop 82,31.948509,35.909151,,,,,0,,,,,,
created_stop_83,Stop 83,31.949233,35.910853,,شارع عبد المنعم رياض,,,0,,,,,,
created_stop_84,Stop 84,31.949862,35.912577,,,,,0,,,,,,
created_stop_85,Stop 85,31.949462,35.914312,,شارع عبد المنعم رياض,,,0,,,,,,
created_stop_86,Stop 86,31.948556,35.915304,,شارع عبد المنعم رياض,,,0,,,,,,
created_stop_87,Stop 87,31.946414,35.916857,,,,,0,,,,,,
created_stop_88,Stop 88,31.945284,35.918405,,Furniture Box,,,0,,,,,,
created_stop_89,Stop 89,31.944653,35.920105,,مركز الحسين الثقافي,,,0,,,,,,
created_stop_90,Stop 90,31.94436,35.922676,,شارع علي بن أبي طالب,,,0,,,,,,
created_stop_91,Stop 91,31.944637,35.923681,,,,,0,,,,,,
created_stop_92,Stop 92,31.945163,35.925428,,شارع علي بن أبي طالب,,,0,,,,,,
created_stop_93,Stop 93,31.945017,35.927212,,شارع علي بن أبي طالب,,,0,,,,,,
created_stop_94,Stop 94,31.944721,35.928988,,شارع علي بن أبي طالب,,,0,,,,,,
created_stop_95,Stop 95,31.945063,35.930762,,,,,0,,,,,,
created_stop_96,Stop 96,31.946145,35.932317,,,,,0,,,,,,
created_stop_97,Stop 97,31.947245,35.93388,,,,,0,,,,,,
created_stop_98,Stop 98,31.948415,35.935386,,,,,0,,,,,,
created_stop_99,Stop 99,31.950208,35.936432,,Nymphaeum,,,0,,,,,,
created_stop_100,Stop 100,31.954917,35.951593,,شارع الجيش,,,0,,,,,,
created_stop_101,Stop 101,31.955962,35.953162,,شارع الجيش,,,0,,,,,,
created_stop_102,Stop 102,31.957545,35.954425,,شارع الملك عبدالله الأول,,,0,,,,,,
created_stop_103,Stop 103,31.959095,35.955694,,شارع فاطمة بنت الحسين,,,0,,,,,,
created_stop_104,Stop 104,31.959933,35.957312,,شارع الجيش,,,0,,,,,,
created_stop_105,Stop 105,31.94553,35.823954,,,,,0,,,,,,
created_stop_106,Stop 106,31.946002,35.825698,,,,,0,,,,,,
created_stop_107,Stop 107,31.946388,35.82747,,شارع الصناعة,,,0,,,,,,
created_stop_108,Stop 108,31.946713,35.82925,,شارع محمد بن أسلم,,,0,,,,,,
created_stop_109,Stop 109,31.946769,35.831046,,شارع الصناعة,,,0,,,,,,
created_stop_110,Stop 110,31.946609,35.832841,,,,,0,,,,,,
created_stop_111,Stop 111,31.946432,35.834635,,,,,0,,,,,,
created_stop_112,Stop 112,31.946259,35.836429,,,,,0,,,,,,
created_stop_113,Stop 113,31.946075,35.838223,,,,,0,,,,,,
created_stop_114,Stop 114,31.94589,35.840016,,شارع الصناعة,,,0,,,,,,
created_stop_115,Stop 115,31.945774,35.841814,,مسجد يونس إسلام,,,0,,,,,,
created_stop_116,Stop 116,31.945744,35.843613,,,,,0,,,,,,
created_stop_117,Stop 117,31.945667,35.845412,,,,,0,,,,,,
created_stop_118,Stop 118,31.945568,35.847209,,,,,0,,,,,,
created_stop_119,Stop 119,31.945305,35.848996,,شارع الصناعة,,,0,,,,,,
created_stop_120,Stop 120,31.945142,35.850786,,شارع الملكة زين الشرف,,,0,,,,,,
created_stop_121,Stop 121,31.945183,35.852586,,,,,0,,,,,,
created_stop_122,Stop 122,31.945233,35.854385,,,,,0,,,,,,
created_stop_123,Stop 123,31.945309,35.856184,,,,,0,,,,,,
created_stop_124,Stop 124,31.945385,35.857983,,شارع الملكة زين الشرف,,,0,,,,,,
created_stop_125,Stop 125,31.945521,35.859779,,شارع الملكة زين الشرف,,,0,,,,,,
created_stop_126,Stop 126,31.945697,35.861573,,,,,0,,,,,,
created_stop_127,Stop 127,31.945873,35.863367,,,,,0,,,,,,
created_stop_128,Stop 128,31.946049,35.865161,,شارع الملكة زين الشرف,,,0,,,,,,
created_stop_129,Stop 129,31.946225,35.866955,,,,,0,,,,,,
created_stop_130,Stop 130,31.946413,35.868749,,,,,0,,,,,,
created_stop_131,Stop 131,31.946608,35.870542,,شارع الملكة زين الشرف,,,0,,,,,,
created_stop_132,Stop 132,31.946775,35.872336,,,,,0,,,,,,
created_stop_133,Stop 133,31.94686,35.874135,,,,,0,,,,,,
created_stop_134,Stop 134,31.946944,35.875933,,شارع الملكة زين الشرف,,,0,,,,,,
created_stop_135,Stop 135,31.946913,35.877732,,,,,0,,,,,,
created_stop_136,Stop 136,31.946846,35.879531,,شارع عبيد بن التيهان,,,0,,,,,,
created_stop_137,Stop 137,31.94678,35.88133,,,,,0,,,,,,
created_stop_138,Stop 138,31.947718,35.882635,,شارع الأمويين,,,0,,,,,,
created_stop_139,Stop 139,31.948872,35.881714,,,,,0,,,,,,
created_stop_140,Stop 140,31.949465,35.87998,,عبدون الشمالي,,,0,,,,,,
created_stop_141,Stop 141,31.950115,35.878259,,شارع محمود الكرمي,,,0,,,,,,
created_stop_142,Stop 142,31.950964,35.876597,,شارع محمد علي جناح,,,0,,,,,,
created_stop_143,Stop 143,31.952736,35.876668,,شارع محمد علي جناح,,,0,,,,,,
created_stop_144,Stop 144,31.954685,35.87753,,,,,0,,,,,,
created_stop_145,Stop 145,31.956603,35.878436,,,,,0,,,,,,
created_stop_146,Stop 146,31.958473,35.879406,,شارع محمد علي جناح,,,0,,,,,,
created_stop_147,Stop 147,31.951447,35.937376,,فندق برج الأردن,,,0,,,,,,
created_stop_148,Stop 148,31.94728,35.826052,,شارع الهيجاء,,,0,,,,,,
created_stop_149,Stop 149,31.947709,35.824287,,شارع محمد بن أسلم,,,0,,,,,,
created_stop_150,Stop 150,31.952857,35.932215,,دكان كتب,,,0,,,,,,
created_stop_151,Stop 151,31.955004,35.931814,,,,,0,,,,,,
created_stop_152,Stop 152,31.95667,35.930998,,DAR,,,0,,,,,,
created_stop_153,Stop 153,31.957922,35.929511,,شارع الملك الحسين,,,0,,,,,,
created_stop_154,Stop 154,31.958707,35.92787,,العدلية,,,0,,,,,,
created_stop_155,Stop 155,31.958908,35.926078,,,,,0,,,,,,
created_stop_156,Stop 156,31.959158,35.924303,,,,,0,,,,,,
created_stop_157,Stop 157,31.959734,35.921809,,شارع الرازي,,,0,,,,,,
created_stop_158,Stop 158,31.959646,35.920886,,الخطوط الجوية العراقية,,,0,,,,,,
created_stop_159,Stop 159,31.959452,35.919095,,شارع أمية بن عبد شمس,,,0,,,,,,
created_stop_160,Stop 160,31.960386,35.917466,,,,,0,,,,,,
created_stop_161,Stop 161,31.961477,35.915902,,شارع رضوان الشواقفة,,,0,,,,,,
created_stop_162,Stop 162,31.963802,35.914658,,,,,0,,,,,,
created_stop_163,Stop 163,31.964623,35.913572,,شارع العمرية,,,0,,,,,,
created_stop_164,Stop 164,31.963113,35.913771,,شارع أحمد كايد الشوبكي,,,0,,,,,,
created_stop_165,Stop 165,31.961576,35.912474,,شارع مجلس الأمة,,,0,,,,,,
created_stop_166,Stop 166,31.961004,35.910484,,Natural Resources Investment & Development Corporation,,,0,,,,,,
created_stop_167,Stop 167,31.961341,35.909146,,,,,0,,,,,,
created_stop_168,Stop 168,31.961996,35.907426,,,,,0,,,,,,
created_stop_169,Stop 169,31.96265,35.905705,,Dina Center 2,,,0,,,,,,
created_stop_170,Stop 170,31.963291,35.903982,,911 Supermarket & More,,,0,,,,,,
created_stop_171,Stop 171,31.963948,35.902263,,شارع الأمير شاكر بن زيد,,,0,,,,,,
created_stop_172,Stop 172,31.964593,35.900542,,دوار الشميساني,,,0,,,,,,
created_stop_173,Stop 173,31.964997,35.89911,,شارع الأمير شاكر بن زيد,,,0,,,,,,
created_stop_174,Stop 174,31.965627,35.897044,,شارع الأمير شاكر بن زيد,,,0,,,,,,
created_stop_175,Stop 175,31.966962,35.895886,,شارع الشريف عبد الحميد شرف,,,0,,,,,,
created_stop_176,Stop 176,31.968571,35.896139,,شميساني - عطا علي,,,0,,,,,,
created_stop_177,Stop 177,31.97026,35.895569,,شارع رفيق العظم,,,0,,,,,,
created_stop_178,Stop 178,31.97244,35.895916,,شارع فارس الخوري,,,0,,,,,,
created_stop_179,Stop 179,31.97115,35.896536,,شميساني - مجمع النقابات,,,0,,,,,,
created_stop_180,Stop 180,31.96052,35.913777,,موقف حافلة مسجد الملك عبد الله الأول,,,0,,,,,,
created_stop_181,Stop 181,31.960338,35.915911,,,,,0,,,,,,
created_stop_182,Stop 182,31.949805,35.934284,,عصائر طازجة رخيصة,,,0,,,,,,
created_stop_183,Stop 183,31.961535,35.959268,,تكية أم علي,,,0,,,,,,
created_stop_184,Stop 184,31.956326,35.914525,,شارع هاني الشيباني,,,0,,,,,,
created_stop_185,Stop 185,31.956766,35.913522,,,,,0,,,,,,
created_stop_186,Stop 186,31.957138,35.910998,,,,,0,,,,,,
created_stop_187,Stop 187,31.957843,35.909167,,,,,0,,,,,,
created_stop_188,Stop 188,31.958622,35.907628,,,,,0,,,,,,
created_stop_189,Stop 189,31.959421,35.905992,,شارع الشريف الحسين بن علي,,,0,,,,,,
created_stop_190,Stop 190,31.959186,35.904205,,شارع عرار,,,0,,,,,,
created_stop_191,Stop 191,31.959246,35.902405,,,,,0,,,,,,
created_stop_192,Stop 192,31.959355,35.900608,,شارع عبد المنعم الرفاعي,,,0,,,,,,
created_stop_193,Stop 193,31.959783,35.898849,,شارع عرار,,,0,,,,,,
created_stop_194,Stop 194,31.960352,35.897109,,شارع عرار,,,0,,,,,,
created_stop_195,Stop 195,31.96064,35.895335,,شارع الحارث بن عمير,,,0,,,,,,
created_stop_196,Stop 196,31.960566,35.893537,,شارع عرار,,,0,,,,,,
created_stop_197,Stop 197,31.960958,35.891731,,موقف حافلة,,,0,,,,,,
created_stop_198,Stop 198,31.962125,35.890228,,Total,,,0,,,,,,
created_stop_199,Stop 199,31.963508,35.888823,,Housing Bank,,,0,,,,,,
created_stop_200,Stop 200,31.965553,35.887385,,,,,0,,,,,,
created_stop_201,Stop 201,31.966638,35.886601,,شارع الكندي,,,0,,,,,,
created_stop_202,Stop 202,31.965603,35.88503,,ضراغمة شقق فندقيه,,,0,,,,,,
created_stop_203,Stop 203,31.964753,35.883583,,Karadsheh Towers,,,0,,,,,,
created_stop_204,Stop 204,31.966418,35.882192,,,,,0,,,,,,
created_stop_205,Stop 205,31.967749,35.880402,,,,,0,,,,,,
created_stop_206,Stop 206,31.968561,35.879121,,,,,0,,,,,,
created_stop_207,Stop 207,31.970036,35.877812,,شارع نعيم عبد الهادي,,,0,,,,,,
created_stop_208,Stop 208,31.970968,35.876696,,شارع بغداد,,,0,,,,,,
created_stop_209,Stop 209,31.971942,35.875035,,شارع مكة المكرمة,,,0,,,,,,
created_stop_210,Stop 210,31.973069,35.872344,,مطعم راجعين,,,0,,,,,,
created_stop_211,Stop 211,31.97348,35.871485,,شارع مكة المكرمة,,,0,,,,,,
created_stop_212,Stop 212,31.973757,35.870099,,,,,0,,,,,,
created_stop_213,Stop 213,31.974148,35.867673,,شارع مكة المكرمة,,,0,,,,,,
created_stop_214,Stop 214,31.974528,35.8659,,شارع مكة المكرمة,,,0,,,,,,
created_stop_215,Stop 215,31.975061,35.863845,,شارع مكة المكرمة,,,0,,,,,,
created_stop_216,Stop 216,31.975288,35.862353,,,,,0,,,,,,
created_stop_217,Stop 217,31.975667,35.86058,,,,,0,,,,,,
created_stop_218,Stop 218,31.976136,35.85872,,شارع مكة المكرمة,,,0,,,,,,
created_stop_219,Stop 219,31.976427,35.857033,,مركز ديكارت الاستشاري للعيون,,,0,,,,,,
created_stop_220,Stop 220,31.976606,35.85525,,شارع صالح يوسف عبدالله,,,0,,,,,,
created_stop_221,Stop 221,31.976387,35.85346,,شارع عبد الله غوشة,,,0,,,,,,
created_stop_222,Stop 222,31.976118,35.851673,,شارع مكة المكرمة,,,0,,,,,,
created_stop_223,Stop 223,31.975849,35.849887,,شارع مكة المكرمة,,,0,,,,,,
created_stop_224,Stop 224,31.97564,35.847642,,توتال,,,0,,,,,,
created_stop_225,Stop 225,31.975311,35.846314,,شارع مكة المكرمة,,,0,,,,,,
created_stop_226,Stop 226,31.975042,35.844527,,شارع دار الصالحين,,,0,,,,,,
created_stop_227,Stop 227,31.97476,35.842742,,,,,0,,,,,,
created_stop_228,Stop 228,31.974277,35.840986,,شارع الأعيان,,,0,,,,,,
created_stop_229,Stop 229,31.974234,35.839226,,شارع الملك عبدالله بن الحسين الثاني,,,0,,,,,,
created_stop_230,Stop 230,31.975843,35.838029,,شارع محمد الكايد أبو بقار,,,0,,,,,,
created_stop_231,Stop 231,31.977719,35.837067,,شارع الملك عبدالله بن الحسين الثاني,,,0,,,,,,
created_stop_232,Stop 232,31.979458,35.835959,,شارع الملك عبدالله بن الحسين الثاني,,,0,,,,,,
created_stop_233,Stop 233,31.98102,35.834681,,شارع الملك عبدالله بن الحسين الثاني,,,0,,,,,,
created_stop_234,Stop 234,31.982581,35.833401,,شارع الملك عبدالله بن الحسين الثاني,,,0,,,,,,
created_stop_235,Stop 235,31.981827,35.831754,,شارع سعيد خير,,,0,,,,,,
created_stop_236,Stop 236,31.98113,35.830046,,شارع سعيد خير,,,0,,,,,,
created_stop_237,Stop 237,31.980521,35.828762,,المدينة الطبية,,,0,,,,,,
created_stop_238,Stop 238,31.948595,35.933842,,El Cairo,,,0,,,,,,
created_stop_239,Stop 239,31.955688,35.91545,,,,,0,,,,,,
created_stop_240,Stop 240,31.968116,35.886855,,,,,0,,,,,,
created_stop_241,Stop 241,31.970201,35.886181,,شارع الشريف ناصر بن جميل,,,0,,,,,,
created_stop_242,Stop 242,31.972308,35.886278,,,,,0,,,,,,
created_stop_243,Stop 243,31.973958,35.886454,,شارع عبدالله بن رواحة,,,0,,,,,,
created_stop_244,Stop 244,31.976276,35.887775,,شارع عمر بن عبد العزيز,,,0,,,,,,
created_stop_245,Stop 245,31.977943,35.888961,,Bus Rapid Transport,,,0,,,,,,
created_stop_246,Stop 246,31.979302,35.890379,,ملحمة التميمي,,,0,,,,,,
created_stop_247,Stop 247,31.980605,35.891597,,شارع الشريف ناصر بن جميل,,,0,,,,,,
created_stop_248,Stop 248,31.982418,35.893731,,شارع الشريف ناصر بن جميل,,,0,,,,,,
created_stop_249,Stop 249,31.983395,35.891458,,سما باريس,,,0,,,,,,
created_stop_250,Stop 250,31.983704,35.889677,,,,,0,,,,,,
created_stop_251,Stop 251,31.983995,35.887892,,FAME suits,,,0,,,,,,
created_stop_252,Stop 252,31.984328,35.886113,,الكلحة,,,0,,,,,,
created_stop_253,Stop 253,31.984766,35.884349,,,,,0,,,,,,
created_stop_254,Stop 254,31.985204,35.882584,,,,,0,,,,,,
created_stop_255,Stop 255,31.985689,35.880828,,شارع بير البطيحات,,,0,,,,,,
created_stop_256,Stop 256,31.986256,35.87909,,Jordan River Hotel,,,0,,,,,,
created_stop_257,Stop 257,31.986962,35.877385,,شارع الشهيد وصفي التل,,,0,,,,,,
created_stop_258,Stop 258,31.987999,35.875795,,,,,0,,,,,,
created_stop_259,Stop 259,31.988958,35.874172,,دوار الواحة y,,,0,,,,,,
created_stop_260,Stop 260,31.989654,35.872469,,Western Union,,,0,,,,,,
created_stop_261,Stop 261,31.99024,35.870732,,شارع الجاردنز,,,0,,,,,,
created_stop_262,Stop 262,31.990826,35.868996,,شارع الشهيد وصفي التل,,,0,,,,,,
created_stop_263,Stop 263,31.991549,35.867296,,شارع الجاردنز,,,0,,,,,,
created_stop_264,Stop 264,31.99232,35.865608,,شارع الشهيد وصفي التل,,,0,,,,,,
created_stop_265,Stop 265,31.993094,35.863922,,شارع الشهيد وصفي التل,,,0,,,,,,
created_stop_266,Stop 266,31.993325,35.862136,,شارع الشهيد وصفي التل,,,0,,,,,,
created_stop_267,Stop 267,31.993745,35.86018,,شارع الشهيد وصفي التل,,,0,,,,,,
created_stop_268,Stop 268,31.994397,35.858653,,شارع الشهيد وصفي التل,,,0,,,,,,
created_stop_269,Stop 269,31.995181,35.856972,,,,,0,,,,,,
created_stop_270,Stop 270,31.996127,35.855344,,,,,0,,,,,,
created_stop_271,Stop 271,31.996729,35.853616,,شارع الشهيد وصفي التل,,,0,,,,,,
created_stop_272,Stop 272,31.997031,35.851834,,فرنجي,,,0,,,,,,
created_stop_273,Stop 273,31.997009,35.850038,,,,,0,,,,,,
created_stop_274,Stop 274,31.996902,35.84824,,شارع عامر بن مالك,,,0,,,,,,
created_stop_275,Stop 275,31.996916,35.84644,,,,,0,,,,,,
created_stop_276,Stop 276,31.997077,35.844645,,شارع الشهيد وصفي التل,,,0,,,,,,
created_stop_277,Stop 277,31.997049,35.842855,,,,,0,,,,,,
created_stop_278,Stop 278,31.996685,35.841081,,UNHCR المفوضية السامية للأمم المتحدة لشؤون اللاجئين,,,0,,,,,,
created_stop_279,Stop 279,31.996617,35.839282,,شارع الشهيد وصفي التل,,,0,,,,,,
created_stop_280,Stop 280,31.996463,35.837487,,Rawhi Pharmacy,,,0,,,,,,
created_stop_281,Stop 281,31.996261,35.835694,,شارع الشهيد وصفي التل,,,0,,,,,,
created_stop_282,Stop 282,31.996008,35.833906,,شارع الشهيد وصفي التل,,,0,,,,,,
created_stop_283,Stop 283,31.995174,35.831504,,شارع سعيد بينو,,,0,,,,,,
created_stop_284,Stop 284,31.994726,35.830484,,دوار خلدا,,,0,,,,,,
created_stop_285,Stop 285,31.993806,35.828846,,شارع الحجاز,,,0,,,,,,
created_stop_286,Stop 286,31.992893,35.827206,,شارع الحجاز,,,0,,,,,,
created_stop_287,Stop 287,31.992752,35.825451,,,,,0,,,,,,
created_stop_288,Stop 288,31.993099,35.823673,,شارع وليد جمال بلقز,,,0,,,,,,
created_stop_289,Stop 289,31.993446,35.821896,,شارع الحجاز,,,0,,,,,,
created_stop_290,Stop 290,31.993897,35.820832,,شارع محمد أحمد طريف,,,0,,,,,,
created_stop_291,Stop 291,31.994078,35.818334,,شارع الحجاز,,,0,,,,,,
created_stop_292,Stop 292,31.994307,35.816546,,شارع الحجاز,,,0,,,,,,
created_stop_293,Stop 293,31.994893,35.814815,,شارع جمعة الشبلي,,,0,,,,,,
created_stop_294,Stop 294,31.995869,35.813202,,شارع الحجاز,,,0,,,,,,
created_stop_295,Stop 295,32.015017,35.868162,,Costa,,,0,,,,,,
created_stop_296,Stop 296,32.013226,35.870091,,Baskin-Robbins,,,0,,,,,,
created_stop_297,Stop 297,32.011917,35.87082,,شارع الملكة رانيا العبد الله,,,0,,,,,,
created_stop_298,Stop 298,32.019888,35.86321,,Bus Rapid Transport,,,0,,,,,,
created_stop_299,Stop 299,32.007511,35.871914,,شارع سليمان الخرابشة,,,0,,,,,,
created_stop_300,Stop 300,32.005734,35.8729,,Total,,,0,,,,,,
created_stop_301,Stop 301,32.003855,35.873807,,Middleton Suites Hotel,,,0,,,,,,
created_stop_302,Stop 302,32.001769,35.873958,,شارع المدينة المنورة,,,0,,,,,,
created_stop_303,Stop 303,31.999877,35.873194,,شارع خليل السالم,,,0,,,,,,
created_stop_304,Stop 304,31.998709,35.872477,,,,,0,,,,,,
created_stop_305,Stop 305,31.996905,35.871469,,شارع المدينة المنورة,,,0,,,,,,
created_stop_306,Stop 306,31.993508,35.87023,,شارع عبدالله العزب,,,0,,,,,,
created_stop_307,Stop 307,31.992415,35.869147,,توتال,,,0,,,,,,
created_stop_308,Stop 308,31.990803,35.868094,,شارع المدينة المنورة,,,0,,,,,,
created_stop_309,Stop 309,31.988925,35.867144,,شارع المدينة المنورة,,,0,,,,,,
created_stop_310,Stop 310,31.987055,35.866396,,,,,0,,,,,,
created_stop_311,Stop 311,31.984841,35.865738,,شارع المدينة المنورة,,,0,,,,,,
created_stop_312,Stop 312,31.982833,35.86497,,شارع المدينة المنورة,,,0,,,,,,
created_stop_313,Stop 313,31.980655,35.86501,,Zayed Cosmetic Dentist,,,0,,,,,,
created_stop_314,Stop 314,31.978489,35.865407,,شارع المدينة المنورة,,,0,,,,,,
created_stop_315,Stop 315,31.976518,35.865443,,شارع المدينة المنورة,,,0,,,,,,
created_stop_316,Stop 316,31.975215,35.85359,,شارع ممدوح الصرايرة,,,0,,,,,,
created_stop_317,Stop 317,31.973044,35.853968,,,,,0,,,,,,
created_stop_318,Stop 318,31.971318,35.854217,,شارع عبد الله غوشة,,,0,,,,,,
created_stop_319,Stop 319,31.9682,35.854919,,,,,0,,,,,,
created_stop_320,Stop 320,31.966653,35.855451,,,,,0,,,,,,
created_stop_321,Stop 321,31.965091,35.85584,,شارع عبد الله غوشة,,,0,,,,,,
created_stop_322,Stop 322,31.96251,35.856747,,,,,0,,,,,,
created_stop_323,Stop 323,31.958247,35.857739,,موقف السابع باص المطار,,,0,,,,,,
created_stop_324,Stop 324,31.956066,35.858079,,باص إلى الجامعة الألمانية المشقر,,,0,,,,,,
created_stop_325,Stop 325,31.953892,35.858446,,شارع مطار الملكة علياء,,,0,,,,,,
created_stop_326,Stop 326,31.951717,35.85881,,شارع تاراس شيفتشينكو,,,0,,,,,,
created_stop_327,Stop 327,31.949539,35.85916,,شارع مطار الملكة علياء,,,0,,,,,,
created_stop_328,Stop 328,31.947351,35.859454,,مسجد أبو عيشة,,,0,,,,,,
created_stop_329,Stop 329,31.943334,35.85822,,شارع يوسف حرزالله,,,0,,,,,,
created_stop_330,Stop 330,31.941861,35.856875,,شارع مطار الملكة علياء,,,0,,,,,,
created_stop_331,Stop 331,31.940436,35.855495,,شارع محمد الزغول,,,0,,,,,,
created_stop_332,Stop 332,31.938668,35.854431,,شارع مطار الملكة علياء,,,0,,,,,,
created_stop_333,Stop 333,31.936503,35.854191,,شارع مطار الملكة علياء,,,0,,,,,,
created_stop_334,Stop 334,31.934505,35.854922,,شارع مطار الملكة علياء,,,0,,,,,,
created_stop_335,Stop 335,31.932951,35.856196,,شارع مطار الملكة علياء,,,0,,,,,,
created_stop_336,Stop 336,31.931499,35.857558,,شارع مطار الملكة علياء,,,0,,,,,,
created_stop_337,Stop 337,31.929908,35.858801,,شارع مطار الملكة علياء,,,0,,,,,,
created_stop_338,Stop 338,31.92798,35.85968,,شارع يونس إسلام,,,0,,,,,,
created_stop_339,Stop 339,31.925778,35.859902,,شارع مطار الملكة علياء,,,0,,,,,,
created_stop_340,Stop 340,31.923571,35.859736,,شارع مطار الملكة علياء,,,0,,,,,,
created_stop_341,Stop 341,31.921374,35.859475,,ماكدونالدز,,,0,,,,,,
created_stop_342,Stop 342,31.919177,35.859213,,شارع مطار الملكة علياء,,,0,,,,,,
created_stop_343,Stop 343,31.916979,35.858958,,شارع مطار الملكة علياء,,,0,,,,,,
created_stop_344,Stop 344,31.914765,35.858835,,شارع جميل الباير,,,0,,,,,,
created_stop_345,Stop 345,31.912666,35.859088,,شارع مطار الملكة علياء,,,0,,,,,,
created_stop_346,Stop 346,31.910888,35.860148,,شارع جورج مبدى خوري,,,0,,,,,,
created_stop_347,Stop 347,31.909738,35.861685,,شارع مطار الملكة علياء,,,0,,,,,,
created_stop_348,Stop 348,31.90898,35.863377,,شارع جورج مبدى خوري,,,0,,,,,,
created_stop_349,Stop 349,31.908314,35.865094,,شارع جويبر العتيبي,,,0,,,,,,
created_stop_350,Stop 350,31.907549,35.86678,,شارع جويبر العتيبي,,,0,,,,,,
created_stop_351,Stop 351,31.906233,35.86819,,Tourist Palm Village Restaurants,,,0,,,,,,
created_stop_352,Stop 352,31.904409,35.869088,,شارع عبد الحميد السائح,,,0,,,,,,
created_stop_353,Stop 353,31.902206,35.869311,,شارع مطار الملكة علياء,,,0,,,,,,
created_stop_354,Stop 354,31.900172,35.869408,,شارع القدس,,,0,,,,,,
created_stop_355,Stop 355,31.899479,35.867698,,شارع القدس,,,0,,,,,,
created_stop_356,Stop 356,31.898662,35.866026,,شارع علي محمد علي العدوان,,,0,,,,,,
created_stop_357,Stop 357,31.898086,35.864303,,شارع القدس,,,0,,,,,,
created_stop_358,Stop 358,31.896045,35.864431,,,,,0,,,,,,
created_stop_359,Stop 359,31.894384,35.863236,,,,,0,,,,,,
created_stop_360,Stop 360,31.893396,35.861636,,,,,0,,,,,,
created_stop_361,Stop 361,31.891821,35.860393,,,,,0,,,,,,
created_stop_362,Stop 362,31.890076,35.859282,,Crispy Chicken,,,0,,,,,,
created_stop_363,Stop 363,31.888492,35.858024,,,,,0,,,,,,
created_stop_364,Stop 364,31.887482,35.857326,,شارع سعيد محمد العبادي,,,0,,,,,,
created_stop_365,Stop 365,32.003136,35.87474,,شارع عاكف الفايز,,,0,,,,,,
created_stop_366,Stop 366,31.994883,35.919414,,محطة باصات الشمالي,,,0,,,,,,
created_stop_367,Stop 367,31.993337,35.918594,,شارع الشهيد,,,0,,,,,,
created_stop_368,Stop 368,31.991563,35.91809,,شارع الأردن,,,0,,,,,,
created_stop_369,Stop 369,31.989353,35.917901,,شارع الأردن,,,0,,,,,,
created_stop_370,Stop 370,31.987132,35.917894,,شارع الأردن,,,0,,,,,,
created_stop_371,Stop 371,31.984911,35.917956,,شارع الأردن,,,0,,,,,,
created_stop_372,Stop 372,31.982695,35.917971,,شارع الأردن,,,0,,,,,,
created_stop_373,Stop 373,31.980486,35.917805,,شارع الأردن,,,0,,,,,,
created_stop_374,Stop 374,31.979149,35.916828,,مستشفى الاستقلال,,,0,,,,,,
created_stop_375,Stop 375,31.978068,35.915255,,شارع الجليل,,,0,,,,,,
created_stop_376,Stop 376,31.976628,35.91367,,شارع مسلم بن الوليد,,,0,,,,,,
created_stop_377,Stop 377,31.975617,35.912257,,شارع عرابة,,,0,,,,,,
created_stop_378,Stop 378,31.974244,35.910842,,شارع مسلم بن الوليد,,,0,,,,,,
created_stop_379,Stop 379,31.972853,35.909439,,شارع الملكة نور,,,0,,,,,,
created_stop_380,Stop 380,31.971498,35.908012,,شارع الملكة نور,,,0,,,,,,
created_stop_381,Stop 381,31.970518,35.906851,,,,,0,,,,,,
created_stop_382,Stop 382,31.968889,35.905101,,شارع الملكة نور,,,0,,,,,,
created_stop_383,Stop 383,31.967669,35.903596,,,,,0,,,,,,
created_stop_384,Stop 384,31.966398,35.90212,,شارع الشريف الحسين بن علي,,,0,,,,,,
created_stop_385,Stop 385,31.962692,35.899266,,,,,0,,,,,,
created_stop_386,Stop 386,31.961795,35.898592,,Ahli Bank,,,0,,,,,,
created_stop_387,Stop 387,31.957579,35.896883,,شارع الملكة نور,,,0,,,,,,
created_stop_388,Stop 388,31.89775,35.869774,,طريق الخدمة الشرقي,,,0,,,,,,
created_stop_389,Stop 389,31.895535,35.869907,,شارع ارشيد الشيبي,,,0,,,,,,
created_stop_390,Stop 390,31.893325,35.870083,,شارع مطار الملكة علياء,,,0,,,,,,
created_stop_391,Stop 391,31.891154,35.870443,,شارع مطار الملكة علياء,,,0,,,,,,
created_stop_392,Stop 392,31.889083,35.871082,,شارع مطار الملكة علياء,,,0,,,,,,
created_stop_393,Stop 393,31.887174,35.871999,,شارع مطار الملكة علياء,,,0,,,,,,
created_stop_394,Stop 394,31.88542,35.8731,,شارع مطار الملكة علياء,,,0,,,,,,
created_stop_395,Stop 395,31.883815,35.874342,,شارع مطار الملكة علياء,,,0,,,,,,
created_stop_396,Stop 396,31.882418,35.875736,,شارع علي هليل,,,0,,,,,,
created_stop_397,Stop 397,31.881181,35.877229,,طريق الخدمة الغربي,,,0,,,,,,
created_stop_398,Stop 398,31.880128,35.878811,,شارع مطار الملكة علياء,,,0,,,,,,
created_stop_399,Stop 399,31.879213,35.88045,,شارع مطار الملكة علياء,,,0,,,,,,
created_stop_400,Stop 400,31.878373,35.882116,,طريق الخدمة الشرقي,,,0,,,,,,
created_stop_401,Stop 401,31.877533,35.883783,,شارع مطار الملكة علياء,,,0,,,,,,
created_stop_402,Stop 402,31.876735,35.885462,,شارع مطار الملكة علياء,,,0,,,,,,
created_stop_403,Stop 403,31.875911,35.887133,,شارع مطار الملكة علياء,,,0,,,,,,
created_stop_404,Stop 404,31.874915,35.88874,,شارع مطار الملكة علياء,,,0,,,,,,
created_stop_405,Stop 405,31.873517,35.890123,,شارع مطار الملكة علياء,,,0,,,,,,
created_stop_406,Stop 406,31.871673,35.891103,,Jo Petrol,,,0,,,,,,
created_stop_407,Stop 407,31.869515,35.891497,,شارع مطار الملكة علياء,,,0,,,,,,
created_stop_408,Stop 408,31.867302,35.891659,,شارع زيد بن خالد,,,0,,,,,,
created_stop_409,Stop 409,31.865086,35.891781,,Total,,,0,,,,,,
created_stop_410,Stop 410,31.862873,35.891684,,Amman Waves Aqua Park and Resort,,,0,,,,,,
created_stop_411,Stop 411,31.860716,35.891253,,Amman Waves Aqua Park and Resort,,,0,,,,,,
created_stop_412,Stop 412,31.858561,35.890815,,شارع مطار الملكة علياء,,,0,,,,,,
created_stop_413,Stop 413,31.856406,35.89038,,طريق الخدمة الشرقي,,,0,,,,,,
created_stop_414,Stop 414,31.854228,35.890031,,شارع مطار الملكة علياء,,,0,,,,,,
created_stop_415,Stop 415,31.852015,35.889871,,طريق الخدمة الشرقي,,,0,,,,,,
created_stop_416,Stop 416,31.849796,35.88986,,طريق الخدمة الشرقي,,,0,,,,,,
created_stop_417,Stop 417,31.847589,35.890042,,شارع عبد الهادي السليم,,,0,,,,,,
created_stop_418,Stop 418,31.845391,35.890303,,شارع عبد الهادي السليم,,,0,,,,,,
created_stop_419,Stop 419,31.84328,35.890863,,شارع عبد الهادي السليم,,,0,,,,,,
created_stop_420,Stop 420,31.841201,35.891496,,شارع عبد الهادي السليم,,,0,,,,,,
created_stop_421,Stop 421,31.839178,35.892234,,شارع عبد الهادي السليم,,,0,,,,,,
created_stop_422,Stop 422,31.837219,35.893083,,جامعة الزيتونة,,,0,,,,,,
created_stop_423,Stop 423,31.835344,35.894049,,جامعة الزيتونة,,,0,,,,,,
created_stop_424,Stop 424,31.833563,35.895124,,طريق الخدمة الشرقي,,,0,,,,,,
created_stop_425,Stop 425,31.83182,35.896239,,طريق الخدمة الشرقي,,,0,,,,,,
created_stop_426,Stop 426,31.830099,35.897378,,شارع عمر لطفي المفتي,,,0,,,,,,
created_stop_427,Stop 427,31.828378,35.898516,,طريق الخدمة الغربي,,,0,,,,,,
created_stop_428,Stop 428,31.826657,35.899654,,IKEA,,,0,,,,,,
created_stop_429,Stop 429,31.824936,35.900793,,IKEA,,,0,,,,,,
created_stop_430,Stop 430,31.823215,35.901931,,IKEA,,,0,,,,,,
created_stop_431,Stop 431,31.821475,35.903051,,شارع حرب العزة,,,0,,,,,,
created_stop_432,Stop 432,31.819725,35.904159,,شارع حرب العزة,,,0,,,,,,
created_stop_433,Stop 433,31.817975,35.905268,,طريق الخدمة الشرقي,,,0,,,,,,
created_stop_434,Stop 434,31.816235,35.906388,,طريق الخدمة الشرقي,,,0,,,,,,
created_stop_435,Stop 435,31.814424,35.907349,,طريق الخدمة الغربي,,,0,,,,,,
created_stop_436,Stop 436,31.812593,35.907366,,,,,0,,,,,,
created_stop_437,Stop 437,31.810696,35.907647,,,,,0,,,,,,
created_stop_438,Stop 438,31.808554,35.907167,,,,,0,,,,,,
created_stop_439,Stop 439,31.80643,35.906989,,شارع ناعور,,,0,,,,,,
created_stop_440,Stop 440,31.804284,35.90617,,شارع مادبا,,,0,,,,,,
created_stop_441,Stop 441,31.802141,35.905696,,شارع مادبا,,,0,,,,,,
created_stop_442,Stop 442,31.799972,35.905304,,شارع مادبا,,,0,,,,,,
created_stop_443,Stop 443,31.797785,35.904999,,شارع مادبا,,,0,,,,,,
created_stop_444,Stop 444,31.795565,35.90492,,شارع مادبا,,,0,,,,,,
created_stop_445,Stop 445,31.793408,35.904592,,شارع مادبا,,,0,,,,,,
created_stop_446,Stop 446,31.79138,35.903858,,شارع مادبا,,,0,,,,,,
created_stop_447,Stop 447,31.789437,35.902984,,شارع مادبا,,,0,,,,,,
created_stop_448,Stop 448,31.787085,35.901556,,أم العمد,,,0,,,,,,
created_stop_449,Stop 449,31.78593,35.900803,,أم العمد,,,0,,,,,,
created_stop_450,Stop 450,31.784547,35.899479,,أم العمد,,,0,,,,,,
created_stop_451,Stop 451,31.783056,35.898066,,أم العمد,,,0,,,,,,
created_stop_452,Stop 452,31.781521,35.896765,,Total,,,0,,,,,,
created_stop_453,Stop 453,31.779985,35.895464,,Total,,,0,,,,,,
created_stop_454,Stop 454,31.77845,35.894163,,Total,,,0,,,,,,
created_stop_455,Stop 455,31.776914,35.892862,,Total,,,0,,,,,,
created_stop_456,Stop 456,31.775379,35.891562,,Manaseer,,,0,,,,,,
created_stop_457,Stop 457,31.773844,35.890261,,Manaseer,,,0,,,,,,
created_stop_458,Stop 458,31.772308,35.88896,,Manaseer,,,0,,,,,,
created_stop_459,Stop 459,31.770773,35.887659,,Manaseer,,,0,,,,,,
created_stop_460,Stop 460,31.769238,35.886358,,Manaseer,,,0,,,,,,
created_stop_461,Stop 461,31.767702,35.885057,,Manaseer,,,0,,,,,,
created_stop_462,Stop 462,31.766167,35.883756,,Al-Andalusia,,,0,,,,,,
created_stop_463,Stop 463,31.764712,35.882398,,Al-Andalusia,,,0,,,,,,
created_stop_464,Stop 464,31.763307,35.881004,,Al-Andalusia,,,0,,,,,,
created_stop_465,Stop 465,31.761918,35.879599,,Al-Andalusia,,,0,,,,,,
created_stop_466,Stop 466,31.760556,35.878177,,شارع مادبا,,,0,,,,,,
created_stop_467,Stop 467,31.759289,35.876704,,شارع مادبا,,,0,,,,,,
created_stop_468,Stop 468,31.758352,35.875072,,شارع مادبا,,,0,,,,,,
created_stop_469,Stop 469,31.757513,35.873407,,شارع مادبا,,,0,,,,,,
created_stop_470,Stop 470,31.756417,35.871846,,شارع مادبا,,,0,,,,,,
created_stop_471,Stop 471,31.755264,35.870308,,شارع مادبا,,,0,,,,,,
created_stop_472,Stop 472,31.754132,35.86876,,شارع مادبا,,,0,,,,,,
created_stop_473,Stop 473,31.753001,35.86721,,شارع مادبا,,,0,,,,,,
created_stop_474,Stop 474,31.752031,35.865594,,شارع مادبا,,,0,,,,,,
created_stop_475,Stop 475,31.751291,35.863897,,شارع مادبا,,,0,,,,,,
created_stop_476,Stop 476,31.750588,35.86219,,منجا,,,0,,,,,,
created_stop_477,Stop 477,31.749924,35.860473,,منجا,,,0,,,,,,
created_stop_478,Stop 478,31.749523,35.858957,,منجا,,,0,,,,,,
created_stop_479,Stop 479,31.748999,35.856953,,منجا,,,0,,,,,,
created_stop_480,Stop 480,31.748584,35.855184,,منجا,,,0,,,,,,
created_stop_481,Stop 481,31.748152,35.853419,,منجا,,,0,,,,,,
created_stop_482,Stop 482,31.747264,35.851775,,منجا,,,0,,,,,,
created_stop_483,Stop 483,31.746303,35.850156,,منجا,,,0,,,,,,
created_stop_484,Stop 484,31.74594,35.848389,,منجا,,,0,,,,,,
created_stop_485,Stop 485,31.745785,35.846593,,Abdul Majeed Shoman Auditorium,,,0,,,,,,
created_stop_486,Stop 486,31.745631,35.844798,,Abdul Majeed Shoman Auditorium,,,0,,,,,,
created_stop_487,Stop 487,31.745477,35.843002,,Abdul Majeed Shoman Auditorium,,,0,,,,,,
created_stop_488,Stop 488,31.74517,35.841223,,Abdul Majeed Shoman Auditorium,,,0,,,,,,
created_stop_489,Stop 489,31.744367,35.839546,,وادي الكفير,,,0,,,,,,
created_stop_490,Stop 490,31.743553,35.837871,,المأمونية الشرقية,,,0,,,,,,
created_stop_491,Stop 491,31.74276,35.83619,,المأمونية الشرقية,,,0,,,,,,
created_stop_492,Stop 492,31.741969,35.834509,,المأمونية الشرقية,,,0,,,,,,
created_stop_493,Stop 493,31.740949,35.83291,,المأمونية الشرقية,,,0,,,,,,
created_stop_494,Stop 494,31.739898,35.831328,,المأمونية الشرقية,,,0,,,,,,
created_stop_495,Stop 495,31.73857,35.829886,,Total,,,0,,,,,,
created_stop_496,Stop 496,31.737207,35.828465,,Total,,,0,,,,,,
created_stop_497,Stop 497,31.73585,35.827041,,Total,,,0,,,,,,
created_stop_498,Stop 498,31.734611,35.825547,,شارع جلول,,,0,,,,,,
created_stop_499,Stop 499,31.733425,35.824026,,شارع جلول,,,0,,,,,,
created_stop_500,Stop 500,31.732233,35.822508,,شارع جلول,,,0,,,,,,
created_stop_501,Stop 501,31.731044,35.820988,,شارع مادبا,,,0,,,,,,
created_stop_502,Stop 502,31.729856,35.819468,,شارع مادبا,,,0,,,,,,
created_stop_503,Stop 503,31.728668,35.817947,,شارع مادبا,,,0,,,,,,
created_stop_504,Stop 504,31.72748,35.816427,,Jo Petrol,,,0,,,,,,
created_stop_505,Stop 505,31.726387,35.814862,,Jo Petrol,,,0,,,,,,
created_stop_506,Stop 506,31.725387,35.813256,,Jo Petrol,,,0,,,,,,
created_stop_507,Stop 507,31.724429,35.811632,,Jo Petrol,,,0,,,,,,
created_stop_508,Stop 508,31.723484,35.810003,,Jo Petrol,,,0,,,,,,
created_stop_509,Stop 509,31.722505,35.808388,,,,,0,,,,,,
created_stop_510,Stop 510,31.721522,35.806776,,,,,0,,,,,,
created_stop_511,Stop 511,31.720453,35.805199,,Jo Petrol,,,0,,,,,,
created_stop_512,Stop 512,31.719382,35.803622,,Jo Petrol,,,0,,,,,,
created_stop_513,Stop 513,31.718282,35.802059,,الحمد,,,0,,,,,,
created_stop_514,Stop 514,31.717188,35.800493,,Gulf,,,0,,,,,,
created_stop_515,Stop 515,31.813896,35.908446,,,,,0,,,,,,
created_stop_516,Stop 516,31.813071,35.909078,,,,,0,,,,,,
created_stop_517,Stop 517,31.944629,35.859093,,شارع الملكة زين الشرف,,,0,,,,,,
created_stop_518,Stop 518,31.95939,35.897735,,شارع عرار,,,0,,,,,,
created_stop_519,Stop 519,32.022045,35.844832,,شارع الملكة رانيا العبد الله,,,0,,,,,,
created_stop_520,Stop 520,32.022378,35.846273,,,,,0,,,,,,
created_stop_521,Stop 521,32.023055,35.848337,,شارع الملكة رانيا العبد الله,,,0,,,,,,
created_stop_522,Stop 522,32.023561,35.85009,,,,,0,,,,,,
created_stop_523,Stop 523,32.024066,35.851842,,,,,0,,,,,,
created_stop_524,Stop 524,32.022324,35.846076,,شارع الملكة رانيا العبد الله,,,0,,,,,,
created_stop_525,Stop 525,32.024921,35.854727,,شارع ياجوز,,,0,,,,,,
created_stop_526,Stop 526,32.02463,35.856894,,Bus Rapid Transport,,,0,,,,,,
created_stop_527,Stop 527,32.023639,35.858849,,شارع الملكة رانيا العبد الله,,,0,,,,,,
created_stop_528,Stop 528,32.024408,35.853737,,شارع ياجوز,,,0,,,,,,
created_stop_529,Stop 529,32.02118,35.861847,,,,,0,,,,,,
created_stop_530,Stop 530,32.019888,35.86321,,Bus Rapid Transport,,,0,,,,,,
created_stop_531,Stop 531,32.018354,35.865415,,BRT Bus Stop,,,0,,,,,,
created_stop_532,Stop 532,32.017236,35.866618,,شارع الملكة رانيا العبد الله,,,0,,,,,,
created_stop_533,Stop 533,32.001718,35.876006,,شارع عاكف الفايز,,,0,,,,,,
created_stop_534,Stop 534,32.000522,35.877927,,,,,0,,,,,,
created_stop_535,Stop 535,31.99961,35.878741,,,,,0,,,,,,
created_stop_536,Stop 536,32.007511,35.871914,,شارع سليمان الخرابشة,,,0,,,,,,
created_stop_537,Stop 537,31.997422,35.882298,,,,,0,,,,,,
created_stop_538,Stop 538,31.996408,35.883899,,,,,0,,,,,,
created_stop_539,Stop 539,31.995588,35.88565,,,,,0,,,,,,
created_stop_540,Stop 540,31.994693,35.887059,,ملحمة و مشاوي عمان,,,0,,,,,,
created_stop_541,Stop 541,31.993966,35.888218,,Bus Rapid Transport,,,0,,,,,,
created_stop_542,Stop 542,31.992286,35.890277,,نفق الصحابة,,,0,,,,,,
created_stop_543,Stop 543,31.991236,35.891862,,McDonald's,,,0,,,,,,
created_stop_544,Stop 544,31.989928,35.893315,,Ministry of Agriculture,,,0,,,,,,
created_stop_545,Stop 545,31.995971,35.885047,,شارع الملكة رانيا العبد الله,,,0,,,,,,
created_stop_546,Stop 546,31.986604,35.896685,,,,,0,,,,,,
created_stop_547,Stop 547,31.985918,35.897628,,دوار المدينة الرياضية,,,0,,,,,,
created_stop_548,Stop 548,31.984786,35.89877,,دوار المدينة الرياضية,,,0,,,,,,
created_stop_549,Stop 549,31.983355,35.900559,,رجم الجويعدية,,,0,,,,,,
created_stop_550,Stop 550,31.982193,35.901419,,شارع الملكة علياء,,,0,,,,,,
created_stop_551,Stop 551,31.980171,35.902538,,موقف حافلة مستشفى التخصصي,,,0,,,,,,
created_stop_552,Stop 552,31.977868,35.903432,,المناصير,,,0,,,,,,
created_stop_553,Stop 553,31.986462,35.896817,,شارع الملكة رانيا العبد الله,,,0,,,,,,
created_stop_554,Stop 554,31.984786,35.89877,,دوار المدينة الرياضية,,,0,,,,,,
created_stop_555,Stop 555,31.974248,35.907964,,شارع عصام العجلوني,,,0,,,,,,
created_stop_556,Stop 556,32.015997,35.867451,,Doors,,,0,,,,,,
created_stop_557,Stop 557,31.959136,35.960091,,شارع اليرموك,,,0,,,,,,
created_stop_558,Stop 558,31.957329,35.961087,,شارع جزر القمر,,,0,,,,,,
created_stop_559,Stop 559,31.956978,35.962813,,شارع اليرموك,,,0,,,,,,
created_stop_560,Stop 560,31.95539,35.963281,,شارع عبد الرحمن الكواكبي,,,0,,,,,,
created_stop_561,Stop 561,31.953708,35.962104,,شارع عدن,,,0,,,,,,
created_stop_562,Stop 562,31.951893,35.961073,,شارع اليرموك,,,0,,,,,,
created_stop_563,Stop 563,31.950259,35.95991,,شارع اليرموك,,,0,,,,,,
created_stop_564,Stop 564,31.949226,35.958335,,شارع اليرموك,,,0,,,,,,
created_stop_565,Stop 565,31.948909,35.956553,,شارع اليرموك,,,0,,,,,,
created_stop_566,Stop 566,31.94785,35.955092,,شارع اليرموك,,,0,,,,,,
created_stop_567,Stop 567,31.945938,35.954177,,شارع قتيبة بن مسلم,,,0,,,,,,
created_stop_568,Stop 568,31.944368,35.952993,,شارع قتيبة بن مسلم,,,0,,,,,,
created_stop_569,Stop 569,31.94231,35.953611,,تقاطع الجسور العشرة,,,0,,,,,,
created_stop_570,Stop 570,31.940999,35.9524,,مجمدات عبد الكريم خضير,,,0,,,,,,
created_stop_571,Stop 571,31.94002,35.950801,,شارع اليرموك,,,0,,,,,,
created_stop_572,Stop 572,31.938279,35.949711,,شارع الإمام البخاري,,,0,,,,,,
created_stop_573,Stop 573,31.936553,35.948599,,شارع عيسى المعلوف,,,0,,,,,,
created_stop_574,Stop 574,31.935056,35.94727,,شارع أطلال,,,0,,,,,,
created_stop_575,Stop 575,31.933055,35.946583,,Tarkhan & Son Ahmad Co.,,,0,,,,,,
created_stop_576,Stop 576,31.930867,35.946273,,شارع اليرموك,,,0,,,,,,
created_stop_577,Stop 577,31.928891,35.945476,,شارع العايدين,,,0,,,,,,
created_stop_578,Stop 578,31.927182,35.944325,,كراج خضر الناطور ابو ربيع,,,0,,,,,,
created_stop_579,Stop 579,31.925493,35.943155,,,,,0,,,,,,
created_stop_580,Stop 580,31.923817,35.941972,,شارع المختار الثقفي,,,0,,,,,,
created_stop_581,Stop 581,31.922164,35.940769,,شارع اليرموك,,,0,,,,,,
created_stop_582,Stop 582,31.921411,35.939136,,شارع اليرموك,,,0,,,,,,
created_stop_583,Stop 583,31.920177,35.938321,,قهوة الو حلوة,,,0,,,,,,
created_stop_584,Stop 584,31.917964,35.938491,,شارع الأمير الحسن,,,0,,,,,,
created_stop_585,Stop 585,31.915749,35.938643,,شركة بيع الآلات الثقيلة وصيانتها,,,0,,,,,,
created_stop_586,Stop 586,31.913543,35.938866,,صيدلية الخليج,,,0,,,,,,
created_stop_587,Stop 587,31.911345,35.938682,,شركة محمد قاووق وشركاه,,,0,,,,,,
created_stop_588,Stop 588,31.909163,35.938339,,حلويات حبيبة,,,0,,,,,,
created_stop_589,Stop 589,31.906917,35.93764,,شارع الأمير الحسن,,,0,,,,,,
created_stop_590,Stop 590,31.904919,35.936958,,شارع الأمير الحسن,,,0,,,,,,
created_stop_591,Stop 591,31.902857,35.937241,,,,,0,,,,,,
created_stop_592,Stop 592,31.900702,35.937683,,,,,0,,,,,,
created_stop_593,Stop 593,31.898545,35.938116,,,,,0,,,,,,
created_stop_594,Stop 594,31.896362,35.93828,,,,,0,,,,,,
created_stop_595,Stop 595,31.894474,35.937378,,,,,0,,,,,,
created_stop_596,Stop 596,31.89273,35.936262,,,,,0,,,,,,
created_stop_597,Stop 597,31.891009,35.935126,,شارع إذفيل سالم القطارنة,,,0,,,,,,
created_stop_598,Stop 598,31.888922,35.934612,,,,,0,,,,,,
created_stop_599,Stop 599,31.886709,35.934719,,,,,0,,,,,,
created_stop_600,Stop 600,31.884503,35.934944,,,,,0,,,,,,
created_stop_601,Stop 601,31.882298,35.935163,,,,,0,,,,,,
created_stop_602,Stop 602,31.880116,35.934899,,,,,0,,,,,,
created_stop_603,Stop 603,31.878209,35.933989,,مسجد عبادة بن الصامت,,,0,,,,,,
created_stop_604,Stop 604,31.876154,35.932648,,,,,0,,,,,,
created_stop_605,Stop 605,31.874707,35.931773,,,,,0,,,,,,
created_stop_606,Stop 606,31.873085,35.930479,,كازية المناصير,,,0,,,,,,
created_stop_607,Stop 607,31.871114,35.929656,,,,,0,,,,,,
created_stop_608,Stop 608,31.869229,35.928704,,,,,0,,,,,,
created_stop_609,Stop 609,31.867147,35.928082,,,,,0,,,,,,
created_stop_610,Stop 610,31.86507,35.927443,,,,,0,,,,,,
created_stop_611,Stop 611,31.862993,35.926803,,Manaseer,,,0,,,,,,
created_stop_612,Stop 612,31.861026,35.926002,,,,,0,,,,,,
created_stop_613,Stop 613,31.859597,35.924627,,,,,0,,,,,,
created_stop_614,Stop 614,31.85814,35.923275,,,,,0,,,,,,
created_stop_615,Stop 615,31.856187,35.922435,,Total,,,0,,,,,,
created_stop_616,Stop 616,31.854163,35.921693,,Total,,,0,,,,,,
created_stop_617,Stop 617,31.852167,35.920904,,,,,0,,,,,,
created_stop_618,Stop 618,31.850326,35.919897,,,,,0,,,,,,
created_stop_619,Stop 619,31.847959,35.918472,,,,,0,,,,,,
created_stop_620,Stop 620,31.846645,35.917879,,,,,0,,,,,,
created_stop_621,Stop 621,31.844796,35.91688,,,,,0,,,,,,
created_stop_622,Stop 622,31.842917,35.915922,,Kan Zaman,,,0,,,,,,
created_stop_623,Stop 623,31.840916,35.915144,,Manaseer,,,0,,,,,,
created_stop_624,Stop 624,31.838844,35.914495,,Manaseer,,,0,,,,,,
created_stop_625,Stop 625,31.836719,35.913968,,Manaseer,,,0,,,,,,
created_stop_626,Stop 626,31.834028,35.913343,,Jo Petrol,,,0,,,,,,
created_stop_627,Stop 627,31.832469,35.912913,,,,,0,,,,,,
created_stop_628,Stop 628,31.830345,35.912386,,,,,0,,,,,,
created_stop_629,Stop 629,31.82822,35.911859,,,,,0,,,,,,
created_stop_630,Stop 630,31.826094,35.911334,,Gulf,,,0,,,,,,
created_stop_631,Stop 631,31.823968,35.91081,,Gulf,,,0,,,,,,
created_stop_632,Stop 632,31.821595,35.910233,,,,,0,,,,,,
created_stop_633,Stop 633,31.819726,35.909737,,,,,0,,,,,,
created_stop_634,Stop 634,31.817598,35.909218,,طريق الخدمة الشرقي,,,0,,,,,,
created_stop_635,Stop 635,31.815461,35.908727,,طريق الخدمة الشرقي,,,0,,,,,,
created_stop_636,Stop 636,31.98612,35.898809,,موقف باصات دوار المدينة الرياضية,,,0,,,,,,
created_stop_637,Stop 637,31.986962,35.900386,,شارع الشهيد,,,0,,,,,,
created_stop_638,Stop 638,31.987227,35.902169,,بنك الإسكان,,,0,,,,,,
created_stop_639,Stop 639,31.987233,35.903968,,,,,0,,,,,,
created_stop_640,Stop 640,31.987605,35.905367,,,,,0,,,,,,
created_stop_641,Stop 641,31.988365,35.908092,,موقف باص,,,0,,,,,,
created_stop_642,Stop 642,31.989096,35.909098,,,,,0,,,,,,
created_stop_643,Stop 643,31.99005,35.910724,,,,,0,,,,,,
created_stop_644,Stop 644,31.991028,35.91234,,,,,0,,,,,,
created_stop_645,Stop 645,31.991723,35.914043,,شارع الشهيد,,,0,,,,,,
created_stop_646,Stop 646,31.992258,35.91579,,,,,0,,,,,,
created_stop_647,Stop 647,31.992794,35.917537,,شارع نصر بن عاصم,,,0,,,,,,
created_stop_648,Stop 648,31.993353,35.918712,,شارع الشهيد,,,0,,,,,,
created_stop_649,Stop 649,31.993598,35.921284,,JETT bus to Irbid,,,0,,,,,,
created_stop_650,Stop 650,31.993864,35.922858,,شارع الشهيد,,,0,,,,,,
created_stop_651,Stop 651,31.993895,35.924923,,,,,0,,,,,,
created_stop_652,Stop 652,31.993549,35.926448,,شارع الشهيد,,,0,,,,,,
created_stop_653,Stop 653,31.993382,35.928243,,شارع بيت ريما,,,0,,,,,,
created_stop_654,Stop 654,31.993234,35.930038,,دوار المشاغل,,,0,,,,,,
created_stop_655,Stop 655,31.992934,35.93182,,شارع الشهيد,,,0,,,,,,
created_stop_656,Stop 656,31.992446,35.933575,,Arifa Mall,,,0,,,,,,
created_stop_657,Stop 657,31.991954,35.935331,,شارع الشهيد,,,0,,,,,,
created_stop_658,Stop 658,31.991464,35.937086,,,,,0,,,,,,
created_stop_659,Stop 659,31.990976,35.938842,,شارع الشهيد,,,0,,,,,,
created_stop_660,Stop 660,31.990492,35.940599,,,,,0,,,,,,
created_stop_661,Stop 661,31.990008,35.942356,,شارع الشهيد,,,0,,,,,,
created_stop_662,Stop 662,31.98983,35.943777,,موقف باصات اشارة طبربور,,,0,,,,,,
created_stop_663,Stop 663,31.989002,35.945862,,شارع الشهيد,,,0,,,,,,
created_stop_664,Stop 664,31.988521,35.947619,,,,,0,,,,,,
created_stop_665,Stop 665,31.988224,35.949398,,شارع الشهيد,,,0,,,,,,
created_stop_666,Stop 666,31.988309,35.951195,,,,,0,,,,,,
created_stop_667,Stop 667,31.988519,35.952987,,شارع العطوفي,,,0,,,,,,
created_stop_668,Stop 668,31.988715,35.95478,,Drug Center Pharmacy,,,0,,,,,,
created_stop_669,Stop 669,31.988899,35.956573,,,,,0,,,,,,
created_stop_670,Stop 670,31.988949,35.95837,,شارع الشهيد,,,0,,,,,,
created_stop_671,Stop 671,31.988591,35.960143,,شارع الشهيد,,,0,,,,,,
created_stop_672,Stop 672,31.988105,35.9619,,شارع عبدالعزيز الشمري,,,0,,,,,,
created_stop_673,Stop 673,31.987603,35.963653,,شارع الشهيد,,,0,,,,,,
created_stop_674,Stop 674,31.987094,35.965405,,Total,,,0,,,,,,
created_stop_675,Stop 675,31.986688,35.967173,,شارع الشهيد,,,0,,,,,,
created_stop_676,Stop 676,31.986665,35.968972,,شارع الشهيد,,,0,,,,,,
created_stop_677,Stop 677,31.986924,35.970757,,شارع الشهيد,,,0,,,,,,
created_stop_678,Stop 678,31.987411,35.972508,,,,,0,,,,,,
created_stop_679,Stop 679,31.988307,35.974153,,شارع الشهيد,,,0,,,,,,
created_stop_680,Stop 680,31.988959,35.97587,,شارع الشهيد,,,0,,,,,,
created_stop_681,Stop 681,31.989451,35.977624,,شارع الشهيد,,,0,,,,,,
created_stop_682,Stop 682,31.990334,35.979274,,شارع الشهيد,,,0,,,,,,
created_stop_683,Stop 683,31.99134,35.980878,,شارع الشهيد,,,0,,,,,,
created_stop_684,Stop 684,31.992026,35.982581,,,,,0,,,,,,
created_stop_685,Stop 685,31.992355,35.984361,,أوتوستراد عمان - الزرقاء,,,0,,,,,,
created_stop_686,Stop 686,31.992677,35.986141,,Jo Petrol,,,0,,,,,,
created_stop_687,Stop 687,31.993027,35.987919,,شارع دير غزالة,,,0,,,,,,
created_stop_688,Stop 688,31.993373,35.989697,,أوتوستراد عمان - الزرقاء,,,0,,,,,,
created_stop_689,Stop 689,31.993904,35.991442,,أوتوستراد عمان - الزرقاء,,,0,,,,,,
created_stop_690,Stop 690,31.994973,35.993011,,توتال,,,0,,,,,,
created_stop_691,Stop 691,31.996431,35.994366,,أوتوستراد عمان - الزرقاء,,,0,,,,,,
created_stop_692,Stop 692,31.99783,35.995764,,,,,0,,,,,,
created_stop_693,Stop 693,31.998809,35.997375,,مركز KH لصيانة السيارات,,,0,,,,,,
created_stop_694,Stop 694,31.999395,35.999108,,أوتوستراد عمان - الزرقاء,,,0,,,,,,
created_stop_695,Stop 695,31.999685,36.000889,,أوتوستراد عمان - الزرقاء,,,0,,,,,,
created_stop_696,Stop 696,31.9996,36.002687,,أوتوستراد عمان - الزرقاء,,,0,,,,,,
created_stop_697,Stop 697,31.999228,36.00446,,جسر ماركا,,,0,,,,,,
created_stop_698,Stop 698,31.998796,36.006226,,أوتوستراد عمان - الزرقاء,,,0,,,,,,
created_stop_699,Stop 699,31.998356,36.00799,,أوتوستراد عمان - الزرقاء,,,0,,,,,,
created_stop_700,Stop 700,31.99791,36.009753,,أوتوستراد عمان - الزرقاء,,,0,,,,,,
created_stop_701,Stop 701,31.997466,36.011517,,,,,0,,,,,,
created_stop_702,Stop 702,31.997029,36.013282,,أوتوستراد عمان - الزرقاء,,,0,,,,,,
created_stop_703,Stop 703,31.996592,36.015047,,أوتوستراد عمان - الزرقاء,,,0,,,,,,
created_stop_704,Stop 704,31.996198,36.016818,,شارع زنوبيا,,,0,,,,,,
created_stop_705,Stop 705,31.995921,36.018603,,شركة البيبسي,,,0,,,,,,
created_stop_706,Stop 706,31.996024,36.019993,,أوتوستراد عمان - الزرقاء,,,0,,,,,,
created_stop_707,Stop 707,31.995644,36.022193,,أوتوستراد عمان - الزرقاء,,,0,,,,,,
created_stop_708,Stop 708,31.995675,36.023992,,محطة محروقات توتال,,,0,,,,,,
created_stop_709,Stop 709,31.995745,36.025791,,أوتوستراد عمان - الزرقاء,,,0,,,,,,
created_stop_710,Stop 710,31.995986,36.027579,,أوتوستراد عمان - الزرقاء,,,0,,,,,,
created_stop_711,Stop 711,31.996454,36.029335,,أوتوستراد عمان - الزرقاء,,,0,,,,,,
created_stop_712,Stop 712,31.997175,36.031038,,أوتوستراد عمان - الزرقاء,,,0,,,,,,
created_stop_713,Stop 713,31.998137,36.032659,,وادي الحنو,,,0,,,,,,
created_stop_714,Stop 714,31.999312,36.034187,,وادي الحنو,,,0,,,,,,
created_stop_715,Stop 715,32.000818,36.035507,,Shreim,,,0,,,,,,
created_stop_716,Stop 716,32.002513,36.036674,,,,,0,,,,,,
created_stop_717,Stop 717,32.00417,36.037874,,أوتوستراد عمان - الزرقاء,,,0,,,,,,
created_stop_718,Stop 718,32.005663,36.039205,,أوتوستراد عمان - الزرقاء,,,0,,,,,,
created_stop_719,Stop 719,32.006921,36.040688,,أوتوستراد عمان - الزرقاء,,,0,,,,,,
created_stop_720,Stop 720,32.00802,36.042251,,أوتوستراد عمان - الزرقاء,,,0,,,,,,
created_stop_721,Stop 721,32.008953,36.043883,,المناصير,,,0,,,,,,
created_stop_722,Stop 722,32.009719,36.045572,,المناصير,,,0,,,,,,
created_stop_723,Stop 723,32.010325,36.047303,,شارع مسقط,,,0,,,,,,
created_stop_724,Stop 724,32.010787,36.049062,,أوتوستراد عمان - الزرقاء,,,0,,,,,,
created_stop_725,Stop 725,32.011169,36.050836,,أوتوستراد عمان - الزرقاء,,,0,,,,,,
created_stop_726,Stop 726,32.011579,36.052604,,أوتوستراد عمان - الزرقاء,,,0,,,,,,
created_stop_727,Stop 727,32.012045,36.054364,,أوتوستراد عمان - الزرقاء,,,0,,,,,,
created_stop_728,Stop 728,32.012507,36.056125,,أوتوستراد عمان - الزرقاء,,,0,,,,,,
created_stop_729,Stop 729,32.012955,36.057888,,أوتوستراد عمان - الزرقاء,,,0,,,,,,
created_stop_730,Stop 730,32.013348,36.05966,,أوتوستراد عمان - الزرقاء,,,0,,,,,,
created_stop_731,Stop 731,32.013777,36.061425,,أوتوستراد عمان - الزرقاء,,,0,,,,,,
created_stop_732,Stop 732,32.014286,36.063177,,أوتوستراد عمان - الزرقاء,,,0,,,,,,
created_stop_733,Stop 733,32.014796,36.064929,,,,,0,,,,,,
created_stop_734,Stop 734,32.015339,36.066674,,أوتوستراد عمان - الزرقاء,,,0,,,,,,
created_stop_735,Stop 735,32.015982,36.068397,,أوتوستراد عمان - الزرقاء,,,0,,,,,,
created_stop_736,Stop 736,32.016625,36.070121,,أوتوستراد عمان - الزرقاء,,,0,,,,,,
created_stop_737,Stop 737,32.017268,36.071844,,أوتوستراد عمان - الزرقاء,,,0,,,,,,
created_stop_738,Stop 738,32.017919,36.073565,,أوتوستراد عمان - الزرقاء,,,0,,,,,,
created_stop_739,Stop 739,32.018586,36.075282,,أوتوستراد عمان - الزرقاء,,,0,,,,,,
created_stop_740,Stop 740,32.019254,36.076999,,أوتوستراد عمان - الزرقاء,,,0,,,,,,
created_stop_741,Stop 741,32.019922,36.078716,,أوتوستراد عمان - الزرقاء,,,0,,,,,,
created_stop_742,Stop 742,32.020721,36.08039,,أوتوستراد عمان - الزرقاء,,,0,,,,,,
created_stop_743,Stop 743,32.021735,36.081992,,أوتوستراد عمان - الزرقاء,,,0,,,,,,
created_stop_744,Stop 744,32.02283,36.083552,,أوتوستراد عمان - الزرقاء,,,0,,,,,,
created_stop_745,Stop 745,32.024235,36.084949,,أوتوستراد عمان - الزرقاء,,,0,,,,,,
created_stop_746,Stop 746,32.02581,36.086217,,أوتوستراد عمان - الزرقاء,,,0,,,,,,
created_stop_747,Stop 747,32.02746,36.08742,,أوتوستراد عمان - الزرقاء,,,0,,,,,,
created_stop_748,Stop 748,32.029413,36.088286,,أوتوستراد عمان - الزرقاء,,,0,,,,,,
created_stop_749,Stop 749,32.031306,36.089235,,Al-Qouds Bakery,,,0,,,,,,
created_stop_750,Stop 750,32.033195,36.090188,,شارع الثورة العربية الكبرى,,,0,,,,,,
created_stop_751,Stop 751,32.035084,36.091141,,أوتوستراد عمان - الزرقاء,,,0,,,,,,
created_stop_752,Stop 752,32.036972,36.092096,,القيصر الصغير للبيتزا,,,0,,,,,,
created_stop_753,Stop 753,32.038856,36.093056,,أوتوستراد عمان - الزرقاء,,,0,,,,,,
created_stop_754,Stop 754,32.040788,36.093943,,دجاج كرسبي,,,0,,,,,,
created_stop_755,Stop 755,32.042933,36.094218,,مقبرة جبل طارق,,,0,,,,,,
created_stop_756,Stop 756,32.044929,36.093496,,بنك الإسكان للتجارة والتمويل,,,0,,,,,,
created_stop_757,Stop 757,32.046734,36.092446,,أوتوستراد عمان - الزرقاء,,,0,,,,,,
created_stop_758,Stop 758,32.048909,36.09232,,شارع الثقافة,,,0,,,,,,
created_stop_759,Stop 759,32.050923,36.093071,,حلويات أمية,,,0,,,,,,
created_stop_760,Stop 760,32.052859,36.093961,,أوتوستراد عمان - الزرقاء,,,0,,,,,,
created_stop_761,Stop 761,32.054855,36.09475,,صيدلية بالي,,,0,,,,,,
created_stop_762,Stop 762,32.057048,36.094795,,أوتوستراد عمان - الزرقاء,,,0,,,,,,
created_stop_763,Stop 763,32.059217,36.094384,,أوتوستراد عمان - الزرقاء,,,0,,,,,,
created_stop_764,Stop 764,32.061405,36.09423,,شارع الجيش,,,0,,,,,,
created_stop_765,Stop 765,32.063533,36.094754,,Cairo Amman Bank,,,0,,,,,,
created_stop_766,Stop 766,32.065583,36.095371,,الاحوال المدنية,,,0,,,,,,
created_stop_767,Stop 767,32.067359,36.096456,,دواكم,,,0,,,,,,
created_stop_768,Stop 768,32.069136,36.097542,,Ja Petrol,,,0,,,,,,
created_stop_769,Stop 769,32.071171,36.098189,,شارع الجيش,,,0,,,,,,
created_stop_770,Stop 770,32.073015,36.099134,,شارع الجيش,,,0,,,,,,
created_stop_771,Stop 771,32.073202,36.10055,,شارع الجيش,,,0,,,,,,
created_stop_772,Stop 772,31.972591,35.86495,,شارع المدينة المنورة,,,0,,,,,,
created_stop_773,Stop 773,31.970431,35.864532,,,,,0,,,,,,
created_stop_774,Stop 774,31.968248,35.864233,,,,,0,,,,,,
created_stop_775,Stop 775,31.966038,35.864303,,شارع علي خلقي الشرايري,,,0,,,,,,
created_stop_776,Stop 776,31.96389,35.864726,,شارع المدينة المنورة,,,0,,,,,,
created_stop_777,Stop 777,31.961834,35.865404,,,,,0,,,,,,
created_stop_778,Stop 778,31.912387,35.857133,,,,,0,,,,,,
created_stop_779,Stop 779,31.910575,35.856094,,شارع سامي شمس الدين,,,0,,,,,,
created_stop_780,Stop 780,31.908748,35.855071,,,,,0,,,,,,
created_stop_781,Stop 781,31.906926,35.854041,,شارع جورج مبدى خوري,,,0,,,,,,
created_stop_782,Stop 782,31.904942,35.85325,,N Kawar,,,0,,,,,,
created_stop_783,Stop 783,31.903398,35.853216,,شارع جورج مبدى خوري,,,0,,,,,,
created_stop_784,Stop 784,31.900656,35.852316,,,,,0,,,,,,
created_stop_785,Stop 785,31.898522,35.85182,,,,,0,,,,,,
created_stop_786,Stop 786,31.89639,35.851317,,شارع محمد صالح شبيلات,,,0,,,,,,
created_stop_787,Stop 787,31.894239,35.850868,,,,,0,,,,,,
created_stop_788,Stop 788,31.892144,35.850298,,,,,0,,,,,,
created_stop_789,Stop 789,31.890549,35.849046,,,,,0,,,,,,
created_stop_790,Stop 790,31.889131,35.847665,,,,,0,,,,,,
created_stop_791,Stop 791,31.888232,35.846026,,شارع ربوة المرج,,,0,,,,,,
created_stop_792,Stop 792,31.887304,35.844399,,شارع ربوة المرج,,,0,,,,,,
created_stop_793,Stop 793,31.885609,35.84331,,شارع ربوة المرج,,,0,,,,,,
created_stop_794,Stop 794,31.883496,35.842807,,,,,0,,,,,,
created_stop_795,Stop 795,31.881332,35.843023,,Climbat,,,0,,,,,,
created_stop_796,Stop 796,31.879299,35.842299,,Jo Petrol,,,0,,,,,,
created_stop_797,Stop 797,31.877678,35.841119,,,,,0,,,,,,
created_stop_798,Stop 798,31.876091,35.839869,,,,,0,,,,,,
created_stop_799,Stop 799,31.874388,35.838717,,,,,0,,,,,,
created_stop_800,Stop 800,31.872841,35.83743,,Jo Petrol,,,0,,,,,,
created_stop_801,Stop 801,31.871393,35.836066,,عمارة السلام,,,0,,,,,,
created_stop_802,Stop 802,31.869999,35.834665,,,,,0,,,,,,
created_stop_803,Stop 803,31.868365,35.834014,,شارع مأدبا الغربي,,,0,,,,,,
created_stop_804,Stop 804,31.866444,35.833115,,,,,0,,,,,,
created_stop_805,Stop 805,31.864495,35.832266,,شارع مأدبا الغربي,,,0,,,,,,
created_stop_806,Stop 806,31.862537,35.831428,,شارع مأدبا الغربي,,,0,,,,,,
created_stop_807,Stop 807,31.860383,35.831299,,شارع مأدبا الغربي,,,0,,,,,,
created_stop_808,Stop 808,31.858165,35.831224,,شارع مأدبا الغربي,,,0,,,,,,
created_stop_809,Stop 809,31.855978,35.83124,,شارع مأدبا الغربي,,,0,,,,,,
created_stop_810,Stop 810,31.8542,35.83166,,شارع مأدبا الغربي,,,0,,,,,,
created_stop_811,Stop 811,31.852184,35.832412,,شارع مأدبا الغربي,,,0,,,,,,
created_stop_812,Stop 812,31.850187,35.833198,,شارع مأدبا الغربي,,,0,,,,,,
created_stop_813,Stop 813,31.848186,35.833977,,شارع مأدبا الغربي,,,0,,,,,,
created_stop_814,Stop 814,31.84599,35.834119,,,,,0,,,,,,
created_stop_815,Stop 815,31.843771,35.834092,,,,,0,,,,,,
created_stop_816,Stop 816,31.841555,35.83418,,أم القنافذ,,,0,,,,,,
created_stop_817,Stop 817,31.839348,35.834008,,أم القنافذ,,,0,,,,,,
created_stop_818,Stop 818,31.837174,35.833659,,أم القنافذ,,,0,,,,,,
created_stop_819,Stop 819,31.835078,35.833082,,أم القنافذ,,,0,,,,,,
created_stop_820,Stop 820,31.833114,35.832247,,أم القنافذ,,,0,,,,,,
created_stop_821,Stop 821,31.831234,35.83129,,أم القنافذ,,,0,,,,,,
created_stop_822,Stop 822,31.82937,35.830312,,أم القنافذ,,,0,,,,,,
created_stop_823,Stop 823,31.827506,35.829335,,الروضة ناعور,,,0,,,,,,
created_stop_824,Stop 824,31.825585,35.828435,,الروضة ناعور,,,0,,,,,,
created_stop_825,Stop 825,31.823639,35.827573,,الروضة ناعور,,,0,,,,,,
created_stop_826,Stop 826,31.821557,35.826952,,الروضة ناعور,,,0,,,,,,
created_stop_827,Stop 827,31.819388,35.826606,,الروضة ناعور,,,0,,,,,,
created_stop_828,Stop 828,31.817179,35.826573,,الروضة ناعور,,,0,,,,,,
created_stop_829,Stop 829,31.815135,35.825914,,العال,,,0,,,,,,
created_stop_830,Stop 830,31.813303,35.824899,,العال,,,0,,,,,,
created_stop_831,Stop 831,31.811796,35.823604,,,,,0,,,,,,
created_stop_832,Stop 832,31.810564,35.822107,,,,,0,,,,,,
created_stop_833,Stop 833,31.809487,35.820537,,,,,0,,,,,,
created_stop_834,Stop 834,31.808533,35.818913,,,,,0,,,,,,
created_stop_835,Stop 835,31.807719,35.817238,,,,,0,,,,,,
created_stop_836,Stop 836,31.806783,35.815611,,Tell Hesban,,,0,,,,,,
created_stop_837,Stop 837,31.805357,35.814234,,Tell Hesban,,,0,,,,,,
created_stop_838,Stop 838,31.803608,35.813133,,Tell Hesban,,,0,,,,,,
created_stop_839,Stop 839,31.801604,35.812363,,Tell Hesban,,,0,,,,,,
created_stop_840,Stop 840,31.799703,35.811443,,Tell Hesban,,,0,,,,,,
created_stop_841,Stop 841,31.797993,35.810301,,Byzantine Church,,,0,,,,,,
created_stop_842,Stop 842,31.796006,35.809515,,Byzantine Church,,,0,,,,,,
created_stop_843,Stop 843,31.793937,35.808864,,شارع مأدبا الغربي,,,0,,,,,,
created_stop_844,Stop 844,31.79181,35.808365,,شارع مأدبا الغربي,,,0,,,,,,
created_stop_845,Stop 845,31.789727,35.807746,,شارع مأدبا الغربي,,,0,,,,,,
created_stop_846,Stop 846,31.787629,35.807166,,شارع مأدبا الغربي,,,0,,,,,,
created_stop_847,Stop 847,31.785457,35.806797,,شارع مأدبا الغربي,,,0,,,,,,
created_stop_848,Stop 848,31.78326,35.806551,,GJU,,,0,,,,,,
created_stop_849,Stop 849,31.78113,35.806077,,GJU,,,0,,,,,,
created_stop_850,Stop 850,31.779052,35.805445,,GJU,,,0,,,,,,
created_stop_851,Stop 851,31.776992,35.804775,,Schloss Restaurant,,,0,,,,,,
created_stop_852,Stop 852,31.774942,35.804087,,Building H,,,0,,,,,,
created_stop_853,Stop 853,31.77295,35.803296,,Building H,,,0,,,,,,
created_stop_854,Stop 854,31.770978,35.80247,,Cairo Amman Bank,,,0,,,,,,
created_stop_855,Stop 855,31.769062,35.801564,,قضاء جرينة,,,0,,,,,,
created_stop_856,Stop 856,31.767051,35.800815,,قضاء جرينة,,,0,,,,,,
created_stop_857,Stop 857,31.764906,35.800363,,قضاء جرينة,,,0,,,,,,
created_stop_858,Stop 858,31.762704,35.800225,,قضاء جرينة,,,0,,,,,,
created_stop_859,Stop 859,31.760577,35.799801,,جرينة,,,0,,,,,,
created_stop_860,Stop 860,31.758497,35.799173,,جرينة,,,0,,,,,,
created_stop_861,Stop 861,31.756416,35.798547,,جرينة,,,0,,,,,,
created_stop_862,Stop 862,31.754302,35.798013,,جرينة,,,0,,,,,,
created_stop_863,Stop 863,31.752133,35.797631,,جرينة,,,0,,,,,,
created_stop_864,Stop 864,31.749981,35.797201,,المأمونية الغربية,,,0,,,,,,
created_stop_865,Stop 865,31.747803,35.796859,,المأمونية الغربية,,,0,,,,,,
created_stop_866,Stop 866,31.745604,35.796617,,الرشاد,,,0,,,,,,
created_stop_867,Stop 867,31.743639,35.795883,,الرشاد,,,0,,,,,,
created_stop_868,Stop 868,31.741881,35.794787,,الرشاد,,,0,,,,,,
created_stop_869,Stop 869,31.74005,35.793771,,الرشاد,,,0,,,,,,
created_stop_870,Stop 870,31.73811,35.792899,,الرشاد,,,0,,,,,,
created_stop_871,Stop 871,31.736074,35.792185,,شارع عائشة أم المؤمنين,,,0,,,,,,
created_stop_872,Stop 872,31.733982,35.791599,,النظافة,,,0,,,,,,
created_stop_873,Stop 873,31.731768,35.791564,,النظافة,,,0,,,,,,
created_stop_874,Stop 874,31.729549,35.791537,,Carrefour,,,0,,,,,,
created_stop_875,Stop 875,31.727339,35.791661,,Manaseer Express,,,0,,,,,,
created_stop_876,Stop 876,31.725224,35.79217,,,,,0,,,,,,
created_stop_877,Stop 877,31.723124,35.792685,,Phoenix Hotel,,,0,,,,,,
created_stop_878,Stop 878,31.915903,35.859244,,شارع جميل الباير,,,0,,,,,,
created_stop_879,Stop 879,31.926913,35.859948,,شارع يونس إسلام,,,0,,,,,,
created_stop_880,Stop 880,31.945907,35.928338,,شارع عمر مطر,,,0,,,,,,
created_stop_881,Stop 881,31.946336,35.926574,,مسجد النورين/الأمانة,,,0,,,,,,
created_stop_882,Stop 882,31.946263,35.924776,,امانة عمان,,,0,,,,,,
created_stop_883,Stop 883,31.94576,35.923027,,شارع عمر مطر,,,0,,,,,,
created_stop_884,Stop 884,31.945503,35.921252,,شارع عمر مطر,,,0,,,,,,
created_stop_885,Stop 885,31.94588,35.91948,,شارع عمر مطر,,,0,,,,,,
created_stop_886,Stop 886,31.94662,35.917798,,شارع عمر مطر,,,0,,,,,,
created_stop_887,Stop 887,31.948556,35.915304,,شارع عبد المنعم رياض,,,0,,,,,,
created_stop_888,Stop 888,31.947976,35.912757,,شارع الأميرة بسمة,,,0,,,,,,
created_stop_889,Stop 889,31.947372,35.911025,,شارع الأميرة بسمة,,,0,,,,,,
created_stop_890,Stop 890,31.9468,35.909286,,جوبترول,,,0,,,,,,
created_stop_891,Stop 891,31.946225,35.907548,,شارع الأميرة بسمة,,,0,,,,,,
created_stop_892,Stop 892,31.94612,35.905789,,شارع الأميرة بسمة,,,0,,,,,,
created_stop_893,Stop 893,31.947317,35.904281,,شارع حراء,,,0,,,,,,
created_stop_894,Stop 894,31.94887,35.902996,,Bus Rapid Transport,,,0,,,,,,
created_stop_895,Stop 895,31.950224,35.901573,,Bus Rapid Transport,,,0,,,,,,
created_stop_896,Stop 896,31.951154,35.899951,,,,,0,,,,,,
created_stop_897,Stop 897,31.951822,35.89824,,شارع الدكتور إبراهيم الخالدي,,,0,,,,,,
created_stop_898,Stop 898,31.951778,35.896447,,شارع الأميرة بسمة,,,0,,,,,,
created_stop_899,Stop 899,31.951464,35.894668,,شارع الملكة نور,,,0,,,,,,
created_stop_900,Stop 900,31.951837,35.892921,,جسر عبدون,,,0,,,,,,
created_stop_901,Stop 901,31.952534,35.891212,,,,,0,,,,,,
created_stop_902,Stop 902,31.953256,35.88951,,أمديست,,,0,,,,,,
created_stop_903,Stop 903,31.953979,35.887809,,شارع الأميرة بسمة,,,0,,,,,,
created_stop_904,Stop 904,31.954578,35.886077,,شارع الأميرة بسمة,,,0,,,,,,
created_stop_905,Stop 905,31.955165,35.884342,,شارع الأميرة بسمة,,,0,,,,,,
created_stop_906,Stop 906,31.956058,35.882695,,Blom Bank,,,0,,,,,,
created_stop_907,Stop 907,31.956964,35.881051,,Total,,,0,,,,,,
created_stop_908,Stop 908,31.959524,35.880237,,شارع بيروت,,,0,,,,,,
created_stop_909,Stop 909,31.955316,35.829318,,,,,0,,,,,,
created_stop_910,Stop 910,31.954779,35.827128,,شارع وادي السير,,,0,,,,,,
created_stop_911,Stop 911,31.953921,35.826007,,شارع وادي السير,,,0,,,,,,
created_stop_912,Stop 912,31.952798,35.82393,,شارع عربي جرادات,,,0,,,,,,
created_stop_913,Stop 913,31.952416,35.822686,,,,,0,,,,,,
created_stop_914,Stop 914,31.952218,35.820908,,,,,0,,,,,,
created_stop_915,Stop 915,31.952086,35.819711,,شارع قلة كري,,,0,,,,,,
created_stop_916,Stop 916,31.95014,35.818847,,شارع عراق الأمير,,,0,,,,,,
created_stop_917,Stop 917,31.948188,35.817991,,,,,0,,,,,,
created_stop_918,Stop 918,31.950605,35.935269,,,,,0,,,,,,
created_stop_919,Stop 919,31.94737,35.932969,,,,,0,,,,,,
created_stop_920,Stop 920,31.945444,35.929831,,,,,0,,,,,,
created_stop_921,Stop 921,31.95203,35.942429,,شارع مسلمة بن عبدالملك,,,0,,,,,,
created_stop_922,Stop 922,31.952008,35.944227,,شارع المدرج,,,0,,,,,,
created_stop_923,Stop 923,32.021221,35.844076,,,,,0,,,,,,
created_stop_924,Stop 924,32.019047,35.843715,,شارع الملك عبدالله بن الحسين الثاني,,,0,,,,,,
created_stop_925,Stop 925,32.016878,35.843332,,شارع الملك عبدالله بن الحسين الثاني,,,0,,,,,,
created_stop_926,Stop 926,32.014708,35.842949,,شارع الملك عبدالله بن الحسين الثاني,,,0,,,,,,
created_stop_927,Stop 927,32.012905,35.841903,,شارع الملك عبدالله بن الحسين الثاني,,,0,,,,,,
created_stop_928,Stop 928,32.011384,35.840592,,شارع الملك عبدالله بن الحسين الثاني,,,0,,,,,,
created_stop_929,Stop 929,32.009905,35.839251,,,,,0,,,,,,
created_stop_930,Stop 930,32.008555,35.837829,,شارع الملك عبدالله بن الحسين الثاني,,,0,,,,,,
created_stop_931,Stop 931,32.007464,35.836261,,شارع الملك عبدالله بن الحسين الثاني,,,0,,,,,,
created_stop_932,Stop 932,32.006447,35.834662,,كوستكو كنز الأردن,,,0,,,,,,
created_stop_933,Stop 933,32.005429,35.833062,,شارع نجيب السعد البطاينة,,,0,,,,,,
created_stop_934,Stop 934,32.004198,35.831572,,,,,0,,,,,,
created_stop_935,Stop 935,32.002344,35.830627,,شارع الملك عبدالله بن الحسين الثاني,,,0,,,,,,
created_stop_936,Stop 936,32.000153,35.830422,,شارع غانم ولد علي,,,0,,,,,,
created_stop_937,Stop 937,31.997935,35.830364,,شارع الملك عبدالله بن الحسين الثاني,,,0,,,,,,
created_stop_938,Stop 938,31.993495,35.830308,,,,,0,,,,,,
created_stop_939,Stop 939,31.991276,35.83028,,شارع الحجاز,,,0,,,,,,
created_stop_940,Stop 940,31.989067,35.830407,,شارع الملك عبدالله بن الحسين الثاني,,,0,,,,,,
created_stop_941,Stop 941,31.986938,35.830902,,شارع مذيب علوي,,,0,,,,,,
created_stop_942,Stop 942,31.984946,35.83169,,شارع الملك عبدالله بن الحسين الثاني,,,0,,,,,,
created_stop_943,Stop 943,31.972854,35.839487,,شارع الملك عبدالله بن الحسين الثاني,,,0,,,,,,
created_stop_944,Stop 944,31.970973,35.840444,,شارع بركات طراد الخريشة,,,0,,,,,,
created_stop_945,Stop 945,31.968933,35.841574,,شارع الملك عبدالله بن الحسين الثاني,,,0,,,,,,
created_stop_946,Stop 946,31.966527,35.842446,,شارع الملك عبدالله بن الحسين الثاني,,,0,,,,,,
created_stop_947,Stop 947,31.965325,35.843305,,,,,0,,,,,,
created_stop_948,Stop 948,31.96314,35.844134,,شارع الملك عبدالله بن الحسين الثاني,,,0,,,,,,
created_stop_949,Stop 949,31.96133,35.845164,,,,,0,,,,,,
created_stop_950,Stop 950,31.95941,35.845783,,شارع الملك عبدالله بن الحسين الثاني,,,0,,,,,,
created_stop_951,Stop 951,31.947181,35.817228,,شارع عراق الأمير,,,0,,,,,,
created_stop_952,Stop 952,31.958278,35.846187,,شارع رافع بن زيد,,,0,,,,,,
created_stop_953,Stop 953,31.983946,35.832269,,شارع الملك عبدالله بن الحسين الثاني,,,0,,,,,,
created_stop_954,Stop 954,31.996626,35.83024,,,,,0,,,,,,
created_stop_955,Stop 955,31.94395,35.906218,,شارع وادي عبدون,,,0,,,,,,
created_stop_956,Stop 956,31.942009,35.907094,,شارع وادي عبدون,,,0,,,,,,
created_stop_957,Stop 957,31.939927,35.907402,,دوار القيسية,,,0,,,,,,
created_stop_958,Stop 958,31.939308,35.909028,,,,,0,,,,,,
created_stop_959,Stop 959,31.937286,35.9094,,,,,0,,,,,,
created_stop_960,Stop 960,31.935092,35.909223,,مسجد الهلال,,,0,,,,,,
created_stop_961,Stop 961,31.933203,35.908357,,,,,0,,,,,,
created_stop_962,Stop 962,31.932418,35.90687,,شارع عدي بن حاتم,,,0,,,,,,
created_stop_963,Stop 963,31.933705,35.905403,,شارع عدي بن حاتم,,,0,,,,,,
created_stop_964,Stop 964,31.93287,35.903883,,شارع بني تميم,,,0,,,,,,
created_stop_965,Stop 965,31.931658,35.90323,,شارع بني جهينة,,,0,,,,,,
created_stop_966,Stop 966,31.932426,35.901769,,شارع الأنصار,,,0,,,,,,
created_stop_967,Stop 967,31.931026,35.900374,,شارع بني كنانة,,,0,,,,,,
created_stop_968,Stop 968,31.929612,35.899695,,شارع الحرم,,,0,,,,,,
created_stop_969,Stop 969,31.928092,35.898702,,شارع العماد الأصفهاني,,,0,,,,,,
created_stop_970,Stop 970,31.926668,35.897321,,شارع سالم السقاف,,,0,,,,,,
created_stop_971,Stop 971,31.925244,35.895939,,شارع التضحية,,,0,,,,,,
created_stop_972,Stop 972,31.923792,35.894577,,شارع الحرم,,,0,,,,,,
created_stop_973,Stop 973,31.922361,35.8932,,شارع سليمان السعدين,,,0,,,,,,
created_stop_974,Stop 974,31.921903,35.891769,,شارع سليمان السعدين,,,0,,,,,,
created_stop_975,Stop 975,31.923617,35.890636,,شارع سليمان السعدين,,,0,,,,,,
created_stop_976,Stop 976,31.924203,35.888925,,شارع الأمير هاشم بن الحسين,,,0,,,,,,
created_stop_977,Stop 977,31.924242,35.887126,,شارع الأمير هاشم بن الحسين,,,0,,,,,,
created_stop_978,Stop 978,31.924683,35.885379,,شارع الطفيل بن النعمان,,,0,,,,,,
created_stop_979,Stop 979,31.926056,35.883997,,شارع علي محمد الكسواني,,,0,,,,,,
created_stop_980,Stop 980,31.928151,35.883553,,شارع الأمير هاشم بن الحسين,,,0,,,,,,
created_stop_981,Stop 981,31.930258,35.884059,,شارع الأمير هاشم بن الحسين,,,0,,,,,,
created_stop_982,Stop 982,31.932184,35.884954,,شارع فؤاد فراج,,,0,,,,,,
created_stop_983,Stop 983,31.934106,35.885857,,شارع الأمير هاشم بن الحسين,,,0,,,,,,
created_stop_984,Stop 984,31.936017,35.886775,,شارع هاني العكاشة,,,0,,,,,,
created_stop_985,Stop 985,31.937953,35.887657,,Syrian Embassy,,,0,,,,,,
created_stop_986,Stop 986,31.939897,35.888528,,شارع الأمير هاشم بن الحسين,,,0,,,,,,
created_stop_987,Stop 987,31.941851,35.889379,,شارع الأمير هاشم بن الحسين,,,0,,,,,,
created_stop_988,Stop 988,31.943782,35.890267,,شارع الأمير هاشم بن الحسين,,,0,,,,,,
created_stop_989,Stop 989,31.945721,35.891146,,شارع دمشق,,,0,,,,,,
created_stop_990,Stop 990,31.94767,35.892009,,شارع الأمير هاشم بن الحسين,,,0,,,,,,
created_stop_991,Stop 991,31.949187,35.892305,,,,,0,,,,,,
created_stop_992,Stop 992,31.940793,35.886092,,,,,0,,,,,,
created_stop_993,Stop 993,31.941286,35.884337,,شارع سعيد عبدو شموط,,,0,,,,,,
created_stop_994,Stop 994,31.941777,35.882582,,Kashoka,,,0,,,,,,
created_stop_995,Stop 995,31.942268,35.880826,,,,,0,,,,,,
created_stop_996,Stop 996,31.942817,35.879083,,,,,0,,,,,,
created_stop_997,Stop 997,31.943285,35.877327,,,,,0,,,,,,
created_stop_998,Stop 998,31.943313,35.87553,,,,,0,,,,,,
created_stop_999,Stop 999,31.943182,35.873735,,,,,0,,,,,,
created_stop_1000,Stop 1000,31.94295,35.871945,,,,,0,,,,,,
created_stop_1001,Stop 1001,31.942852,35.870149,,شارع الهاشميين,,,0,,,,,,
created_stop_1002,Stop 1002,31.942921,35.86835,,شارع الهاشميين,,,0,,,,,,
created_stop_1003,Stop 1003,31.942991,35.866551,,صيدلية جونية,,,0,,,,,,
created_stop_1004,Stop 1004,31.943043,35.864751,,,,,0,,,,,,
created_stop_1005,Stop 1005,31.943033,35.862952,,,,,0,,,,,,
created_stop_1006,Stop 1006,31.944651,35.862551,,شارع عيسى بن سلمان,,,0,,,,,,
created_stop_1007,Stop 1007,31.946708,35.883284,,7b,,,0,,,,,,
created_stop_1008,Stop 1008,31.946641,35.885083,,,,,0,,,,,,
created_stop_1009,Stop 1009,31.946187,35.886837,,شارع الأمير علي بن الحسين,,,0,,,,,,
created_stop_1010,Stop 1010,31.945384,35.888512,,,,,0,,,,,,
created_stop_1011,Stop 1011,31.943538,35.891785,,,,,0,,,,,,
created_stop_1012,Stop 1012,31.942785,35.893477,,,,,0,,,,,,
created_stop_1013,Stop 1013,31.942338,35.89524,,,,,0,,,,,,
created_stop_1014,Stop 1014,31.941824,35.896991,,شارع الأمير علي بن الحسين,,,0,,,,,,
created_stop_1015,Stop 1015,31.94129,35.898737,,شارع هاني الرفاعي,,,0,,,,,,
created_stop_1016,Stop 1016,31.940636,35.900458,,شارع الأمير علي بن الحسين,,,0,,,,,,
created_stop_1017,Stop 1017,31.939995,35.902181,,شارع الأمير علي بن الحسين,,,0,,,,,,
created_stop_1018,Stop 1018,31.939362,35.903906,,شارع الأمير علي بن الحسين,,,0,,,,,,
created_stop_1019,Stop 1019,31.938871,35.905652,,شارع الأمير علي بن الحسين,,,0,,,,,,
created_stop_1020,Stop 1020,31.945321,35.906892,,شارع الأميرة بسمة,,,0,,,,,,
created_stop_1021,Stop 1021,31.95565,35.84768,,Ministry Of Transport,,,0,,,,,,
created_stop_1022,Stop 1022,31.953931,35.84882,,شارع الملك عبدالله بن الحسين الثاني,,,0,,,,,,
created_stop_1023,Stop 1023,31.952127,35.849869,,شارع عبيد بن أوس,,,0,,,,,,
created_stop_1024,Stop 1024,31.950162,35.850675,,وادي حانوتية,,,0,,,,,,
created_stop_1025,Stop 1025,31.947955,35.850665,,شارع الملك عبدالله بن الحسين الثاني,,,0,,,,,,
created_stop_1026,Stop 1026,31.943748,35.849516,,شارع الملك عبدالله بن الحسين الثاني,,,0,,,,,,
created_stop_1027,Stop 1027,31.941608,35.849056,,شارع الملك عبدالله بن الحسين الثاني,,,0,,,,,,
created_stop_1028,Stop 1028,31.939442,35.849318,,شارع الملك عبدالله بن الحسين الثاني,,,0,,,,,,
created_stop_1029,Stop 1029,31.937716,35.850418,,شارع الملك عبدالله بن الحسين الثاني,,,0,,,,,,
created_stop_1030,Stop 1030,31.936451,35.851895,,شارع حماد بن زيد,,,0,,,,,,
created_stop_1031,Stop 1031,31.935205,35.853384,,شارع الملك عبدالله بن الحسين الثاني,,,0,,,,,,
created_stop_1032,Stop 1032,31.884705,35.84217,,,,,0,,,,,,
created_stop_1033,Stop 1033,31.883123,35.840948,,,,,0,,,,,,
created_stop_1034,Stop 1034,31.882104,35.839349,,,,,0,,,,,,
created_stop_1035,Stop 1035,31.881456,35.837646,,شارع عبد النبي النهار,,,0,,,,,,
created_stop_1036,Stop 1036,31.881226,35.835856,,شارع عبد النبي النهار,,,0,,,,,,
created_stop_1037,Stop 1037,31.880989,35.834066,,شارع عبد النبي النهار,,,0,,,,,,
created_stop_1038,Stop 1038,31.880587,35.832306,,شارع عبد النبي النهار,,,0,,,,,,
created_stop_1039,Stop 1039,31.878149,35.831269,,دوار ناعور,,,0,,,,,,
created_stop_1040,Stop 1040,31.876789,35.830689,,دوار ناعور,,,0,,,,,,
created_stop_1041,Stop 1041,31.875039,35.829601,,مركز أمن ناعور,,,0,,,,,,
created_stop_1042,Stop 1042,31.873511,35.828297,,مركز أمن ناعور,,,0,,,,,,
created_stop_1043,Stop 1043,31.871577,35.827431,,مركز أمن ناعور,,,0,,,,,,
created_stop_1044,Stop 1044,31.870406,35.825914,,مركز أمن ناعور,,,0,,,,,,
created_stop_1045,Stop 1045,31.869623,35.824248,,منطقة ناعور,,,0,,,,,,
created_stop_1046,Stop 1046,31.869991,35.822507,,منطقة ناعور,,,0,,,,,,
created_stop_1047,Stop 1047,31.870563,35.820785,,منطقة ناعور,,,0,,,,,,
created_stop_1048,Stop 1048,31.934529,35.856062,,شارع الملك عبدالله بن الحسين الثاني,,,0,,,,,,
created_stop_1049,Stop 1049,31.946391,35.850335,,شارع الملك عبدالله بن الحسين الثاني,,,0,,,,,,
created_stop_1050,Stop 1050,31.894894,35.839183,,شارع الأمير عاصم بن نايف,,,0,,,,,,
created_stop_1051,Stop 1051,31.896677,35.840255,,شارع الأمير عاصم بن نايف,,,0,,,,,,
created_stop_1052,Stop 1052,31.898216,35.841552,,شارع داود حمدان الرموني,,,0,,,,,,
created_stop_1053,Stop 1053,31.900107,35.843506,,Aisha's High School for Girls,,,0,,,,,,
created_stop_1054,Stop 1054,31.901095,35.844515,,Mawal,,,0,,,,,,
created_stop_1055,Stop 1055,31.902531,35.84591,,شارع الأمير عاصم بن نايف,,,0,,,,,,
created_stop_1056,Stop 1056,31.902779,35.847453,,,,,0,,,,,,
created_stop_1057,Stop 1057,31.902893,35.848813,,,,,0,,,,,,
created_stop_1058,Stop 1058,31.90248,35.851011,,,,,0,,,,,,
created_stop_1059,Stop 1059,31.913607,35.857829,,شارع مطار الملكة علياء,,,0,,,,,,
created_stop_1060,Stop 1060,31.965386,35.901261,,شارع الملكة نور,,,0,,,,,,
created_stop_1061,Stop 1061,31.970211,35.908871,,شارع الملك الحسين,,,0,,,,,,
created_stop_1062,Stop 1062,31.967881,35.908967,,شارع الملك الحسين,,,0,,,,,,
created_stop_1063,Stop 1063,31.967074,35.909723,,Al Fursan Bookstore,,,0,,,,,,
created_stop_1064,Stop 1064,31.965737,35.912045,,شارع عقربة,,,0,,,,,,
created_stop_1065,Stop 1065,31.961064,35.957749,,جسر المربط,,,0,,,,,,
created_stop_1066,Stop 1066,32.02566,35.855807,,شارع ياجوز,,,0,,,,,,
created_stop_1067,Stop 1067,32.026855,35.85768,,Monarch Hotel,,,0,,,,,,
created_stop_1068,Stop 1068,32.027708,35.85899,,,,,0,,,,,,
created_stop_1069,Stop 1069,32.028304,35.860723,,أديداس,,,0,,,,,,
created_stop_1070,Stop 1070,32.028622,35.862496,,شارع ياجوز,,,0,,,,,,
created_stop_1071,Stop 1071,32.02873,35.864267,,الطازج,,,0,,,,,,
created_stop_1072,Stop 1072,32.028676,35.866067,,,,,0,,,,,,
created_stop_1073,Stop 1073,32.028625,35.867866,,شارع ياجوز,,,0,,,,,,
created_stop_1074,Stop 1074,32.028917,35.869644,,JoPetrol,,,0,,,,,,
created_stop_1075,Stop 1075,32.029341,35.871406,,شارع ياجوز,,,0,,,,,,
created_stop_1076,Stop 1076,32.0296,35.872385,,شارع غرفة الكندي,,,0,,,,,,
created_stop_1077,Stop 1077,32.03045,35.874878,,شارع ياجوز,,,0,,,,,,
created_stop_1078,Stop 1078,32.030951,35.876631,,شارع ياجوز,,,0,,,,,,
created_stop_1079,Stop 1079,32.031481,35.877662,,شارع أحمد الطراونة,,,0,,,,,,
created_stop_1080,Stop 1080,32.031681,35.880176,,Ministry of Higher Education,,,0,,,,,,
created_stop_1081,Stop 1081,32.031681,35.881975,,شارع ياجوز,,,0,,,,,,
created_stop_1082,Stop 1082,32.031444,35.883764,,,,,0,,,,,,
created_stop_1083,Stop 1083,32.030987,35.885523,,شارع ياجوز,,,0,,,,,,
created_stop_1084,Stop 1084,32.030254,35.887222,,شارع خالد محمد الردايدة,,,0,,,,,,
created_stop_1085,Stop 1085,32.029427,35.888892,,شارع ياجوز,,,0,,,,,,
created_stop_1086,Stop 1086,32.028838,35.890624,,شارع مكازي أخو ارشيدة,,,0,,,,,,
created_stop_1087,Stop 1087,32.028551,35.892408,,شارع ياجوز,,,0,,,,,,
created_stop_1088,Stop 1088,32.028288,35.894196,,شارع ياجوز,,,0,,,,,,
created_stop_1089,Stop 1089,32.02805,35.895985,,لواء الجامعة,,,0,,,,,,
created_stop_1090,Stop 1090,32.027837,35.897777,,لواء الجامعة,,,0,,,,,,
created_stop_1091,Stop 1091,32.027647,35.89957,,لواء الجامعة,,,0,,,,,,
created_stop_1092,Stop 1092,32.027446,35.901362,,شارع ياجوز,,,0,,,,,,
created_stop_1093,Stop 1093,32.027233,35.903154,,شارع ياجوز,,,0,,,,,,
created_stop_1094,Stop 1094,32.027369,35.904948,,شارع ياجوز,,,0,,,,,,
created_stop_1095,Stop 1095,32.027604,35.906737,,شارع ياجوز,,,0,,,,,,
created_stop_1096,Stop 1096,32.027291,35.9085,,شارع الادباء,,,0,,,,,,
created_stop_1097,Stop 1097,32.026892,35.910938,,شارع الادباء,,,0,,,,,,
created_stop_1098,Stop 1098,32.026792,35.912047,,شارع الادباء,,,0,,,,,,
created_stop_1099,Stop 1099,32.02689,35.913845,,شارع عايد موسى السويلميين,,,0,,,,,,
created_stop_1100,Stop 1100,32.026988,35.915643,,شارع عايد موسى السويلميين,,,0,,,,,,
created_stop_1101,Stop 1101,32.027339,35.917178,,شارع عايد موسى السويلميين,,,0,,,,,,
created_stop_1102,Stop 1102,32.028334,35.91729,,شارع عايد موسى السويلميين,,,0,,,,,,
created_stop_1103,Stop 1103,32.029843,35.915968,,ياجوز,,,0,,,,,,
created_stop_1104,Stop 1104,32.0313,35.914624,,ياجوز,,,0,,,,,,
created_stop_1105,Stop 1105,32.032158,35.912963,,شارع شفا بدران,,,0,,,,,,
created_stop_1106,Stop 1106,32.033039,35.911311,,شارع شفا بدران,,,0,,,,,,
created_stop_1107,Stop 1107,32.034298,35.909849,,شارع شفا بدران,,,0,,,,,,
created_stop_1108,Stop 1108,32.036097,35.908917,,شارع شفا بدران,,,0,,,,,,
created_stop_1109,Stop 1109,32.038252,35.908478,,منطقة شفا بدران,,,0,,,,,,
created_stop_1110,Stop 1110,32.040412,35.908286,,شارع العرب,,,0,,,,,,
created_stop_1111,Stop 1111,32.042608,35.908531,,شارع عبد القادر العدوان,,,0,,,,,,
created_stop_1112,Stop 1112,32.044803,35.908712,,شارع محمود الكايد,,,0,,,,,,
created_stop_1113,Stop 1113,32.046816,35.909469,,شارع شفا بدران,,,0,,,,,,
created_stop_1114,Stop 1114,32.048791,35.910294,,شارع شفا بدران,,,0,,,,,,
created_stop_1115,Stop 1115,32.050748,35.911142,,شارع عبدالله بن أنيس,,,0,,,,,,
created_stop_1116,Stop 1116,32.052907,35.911488,,شارع عبدالله بن أنيس,,,0,,,,,,
created_stop_1117,Stop 1117,32.055045,35.911943,,شارع عبدالله بن عون,,,0,,,,,,
created_stop_1118,Stop 1118,32.057194,35.912398,,شارع شفا بدران,,,0,,,,,,
created_stop_1119,Stop 1119,32.059223,35.913115,,شارع شفا بدران,,,0,,,,,,
created_stop_1120,Stop 1120,32.061156,35.914003,,شارع محمود بني راضي,,,0,,,,,,
created_stop_1121,Stop 1121,32.06264,35.915321,,شارع محمود بني راضي,,,0,,,,,,
created_stop_1122,Stop 1122,32.06383,35.916841,,شارع عبد مهاوش أبو قلة,,,0,,,,,,
created_stop_1123,Stop 1123,32.065245,35.918222,,شارع عبد مهاوش أبو قلة,,,0,,,,,,
created_stop_1124,Stop 1124,32.066937,35.919388,,طريق بيرين - شفا بدران,,,0,,,,,,
created_stop_1125,Stop 1125,32.068675,35.920499,,طريق بيرين - شفا بدران,,,0,,,,,,
created_stop_1126,Stop 1126,32.070828,35.920857,,طريق بيرين - شفا بدران,,,0,,,,,,
created_stop_1127,Stop 1127,32.07299,35.921192,,طريق بيرين - شفا بدران,,,0,,,,,,
created_stop_1128,Stop 1128,32.075044,35.921878,,طريق بيرين - شفا بدران,,,0,,,,,,
created_stop_1129,Stop 1129,32.077083,35.922594,,طريق بيرين - شفا بدران,,,0,,,,,,
created_stop_1130,Stop 1130,32.078795,35.923709,,طريق بيرين - شفا بدران,,,0,,,,,,
created_stop_1131,Stop 1131,32.07972,35.925344,,طريق بيرين - شفا بدران,,,0,,,,,,
created_stop_1132,Stop 1132,32.080684,35.926953,,طريق بيرين - شفا بدران,,,0,,,,,,
created_stop_1133,Stop 1133,32.082083,35.928351,,طريق بيرين - شفا بدران,,,0,,,,,,
created_stop_1134,Stop 1134,32.083794,35.92948,,طريق بيرين - شفا بدران,,,0,,,,,,
created_stop_1135,Stop 1135,32.085885,35.930055,,طريق بيرين - شفا بدران,,,0,,,,,,
created_stop_1136,Stop 1136,32.087908,35.93068,,طريق بيرين - شفا بدران,,,0,,,,,,
created_stop_1137,Stop 1137,32.089108,35.932173,,ماجدة,,,0,,,,,,
created_stop_1138,Stop 1138,32.090011,35.933817,,ماجدة,,,0,,,,,,
created_stop_1139,Stop 1139,32.090889,35.935471,,دوار السيف والدلة,,,0,,,,,,
created_stop_1140,Stop 1140,32.091993,35.937016,,دوار السيف والدلة,,,0,,,,,,
created_stop_1141,Stop 1141,32.092736,35.938701,,طريق بيرين - شفا بدران,,,0,,,,,,
created_stop_1142,Stop 1142,32.092875,35.940492,,طريق بيرين - شفا بدران,,,0,,,,,,
created_stop_1143,Stop 1143,32.092493,35.942254,,المناصير للمحروقات,,,0,,,,,,
created_stop_1144,Stop 1144,32.091966,35.943976,,المناصير للمحروقات,,,0,,,,,,
created_stop_1145,Stop 1145,32.09224,35.945761,,المناصير للمحروقات,,,0,,,,,,
created_stop_1146,Stop 1146,32.092122,35.947557,,طريق بيرين - شفا بدران,,,0,,,,,,
created_stop_1147,Stop 1147,32.09208,35.949347,,طريق بيرين - شفا بدران,,,0,,,,,,
created_stop_1148,Stop 1148,32.092641,35.951072,,طريق بيرين - شفا بدران,,,0,,,,,,
created_stop_1149,Stop 1149,32.093346,35.95277,,طريق بيرين - شفا بدران,,,0,,,,,,
created_stop_1150,Stop 1150,32.094118,35.954437,,طريق بيرين - شفا بدران,,,0,,,,,,
created_stop_1151,Stop 1151,32.095561,35.955803,,طريق بيرين - شفا بدران,,,0,,,,,,
created_stop_1152,Stop 1152,32.09651,35.956825,,طريق بيرين,,,0,,,,,,
created_stop_1153,Stop 1153,32.094814,35.957973,,طريق بيرين,,,0,,,,,,
created_stop_1154,Stop 1154,32.093698,35.959337,,طريق بيرين,,,0,,,,,,
created_stop_1155,Stop 1155,32.093958,35.961124,,طريق بيرين,,,0,,,,,,
created_stop_1156,Stop 1156,32.092903,35.961759,,طريق بيرين,,,0,,,,,,
created_stop_1157,Stop 1157,32.091313,35.960789,,طريق بيرين,,,0,,,,,,
created_stop_1158,Stop 1158,32.091899,35.962282,,طريق بيرين,,,0,,,,,,
created_stop_1159,Stop 1159,32.092631,35.963978,,طريق بيرين,,,0,,,,,,
created_stop_1160,Stop 1160,32.092581,35.965767,,طريق بيرين,,,0,,,,,,
created_stop_1161,Stop 1161,32.092535,35.967561,,طريق بيرين,,,0,,,,,,
created_stop_1162,Stop 1162,32.092566,35.969348,,طريق بيرين,,,0,,,,,,
created_stop_1163,Stop 1163,32.092177,35.971119,,طريق بيرين,,,0,,,,,,
created_stop_1164,Stop 1164,32.092343,35.972911,,طريق بيرين,,,0,,,,,,
created_stop_1165,Stop 1165,32.092547,35.974703,,طريق بيرين,,,0,,,,,,
created_stop_1166,Stop 1166,32.092373,35.976484,,طريق بيرين,,,0,,,,,,
created_stop_1167,Stop 1167,32.091687,35.978195,,طريق بيرين,,,0,,,,,,
created_stop_1168,Stop 1168,32.09119,35.979949,,تحويلة بيرين - عمان,,,0,,,,,,
created_stop_1169,Stop 1169,32.090776,35.981717,,تحويلة بيرين - عمان,,,0,,,,,,
created_stop_1170,Stop 1170,32.090549,35.983507,,تحويلة بيرين - عمان,,,0,,,,,,
created_stop_1171,Stop 1171,32.089959,35.985218,,تحويلة بيرين - عمان,,,0,,,,,,
created_stop_1172,Stop 1172,32.088951,35.986782,,تحويلة بيرين - عمان,,,0,,,,,,
created_stop_1173,Stop 1173,32.088719,35.988562,,تحويلة بيرين - عمان,,,0,,,,,,
created_stop_1174,Stop 1174,32.088907,35.990356,,الرياض,,,0,,,,,,
created_stop_1175,Stop 1175,32.088738,35.992134,,الرياض,,,0,,,,,,
created_stop_1176,Stop 1176,32.088262,35.993889,,الرياض,,,0,,,,,,
created_stop_1177,Stop 1177,32.088207,35.995682,,الرياض,,,0,,,,,,
created_stop_1178,Stop 1178,32.087837,35.997453,,عرقوب أبو الفطائس,,,0,,,,,,
created_stop_1179,Stop 1179,32.087258,35.99919,,عرقوب أبو الفطائس,,,0,,,,,,
created_stop_1180,Stop 1180,32.086333,36.000826,,عرقوب أبو الفطائس,,,0,,,,,,
created_stop_1181,Stop 1181,32.085368,36.002447,,طريق بيرين,,,0,,,,,,
created_stop_1182,Stop 1182,32.084417,36.004074,,طريق بيرين,,,0,,,,,,
created_stop_1183,Stop 1183,32.083849,36.005807,,طريق بيرين,,,0,,,,,,
created_stop_1184,Stop 1184,32.083406,36.007571,,طريق بيرين,,,0,,,,,,
created_stop_1185,Stop 1185,32.083432,36.009346,,طريق بيرين,,,0,,,,,,
created_stop_1186,Stop 1186,32.084506,36.010891,,طريق بيرين,,,0,,,,,,
created_stop_1187,Stop 1187,32.085806,36.012341,,وادي مرحب,,,0,,,,,,
created_stop_1188,Stop 1188,32.086477,36.014057,,وادي مرحب,,,0,,,,,,
created_stop_1189,Stop 1189,32.086772,36.015833,,وادي مرحب,,,0,,,,,,
created_stop_1190,Stop 1190,32.086385,36.017601,,وادي مرحب,,,0,,,,,,
created_stop_1191,Stop 1191,32.085697,36.019308,,وادي مرحب,,,0,,,,,,
created_stop_1192,Stop 1192,32.084479,36.020803,,وادي مرحب,,,0,,,,,,
created_stop_1193,Stop 1193,32.08258,36.021696,,تحويلة بيرين - عمان,,,0,,,,,,
created_stop_1194,Stop 1194,32.080763,36.022697,,تحويلة بيرين - عمان,,,0,,,,,,
created_stop_1195,Stop 1195,32.079313,36.024045,,طريق بيرين,,,0,,,,,,
created_stop_1196,Stop 1196,32.078392,36.025679,,طريق بيرين,,,0,,,,,,
created_stop_1197,Stop 1197,32.078202,36.02746,,طريق بيرين,,,0,,,,,,
created_stop_1198,Stop 1198,32.078312,36.029258,,طريق بيرين,,,0,,,,,,
created_stop_1199,Stop 1199,32.077796,36.030973,,طريق بيرين,,,0,,,,,,
created_stop_1200,Stop 1200,32.076659,36.032521,,طريق بيرين,,,0,,,,,,
created_stop_1201,Stop 1201,32.075499,36.034057,,طريق بيرين,,,0,,,,,,
created_stop_1202,Stop 1202,32.07446,36.03564,,طريق بيرين,,,0,,,,,,
created_stop_1203,Stop 1203,32.073878,36.037378,,طريق بيرين,,,0,,,,,,
created_stop_1204,Stop 1204,32.072833,36.038933,,طريق بيرين,,,0,,,,,,
created_stop_1205,Stop 1205,32.070887,36.039726,,طريق بيرين,,,0,,,,,,
created_stop_1206,Stop 1206,32.068708,36.039976,,طريق بيرين,,,0,,,,,,
created_stop_1207,Stop 1207,32.066814,36.040732,,طريق بيرين,,,0,,,,,,
created_stop_1208,Stop 1208,32.065924,36.042346,,الاميرة هيا,,,0,,,,,,
created_stop_1209,Stop 1209,32.065587,36.044122,,وادي المدق,,,0,,,,,,
created_stop_1210,Stop 1210,32.065472,36.045919,,وادي المدق,,,0,,,,,,
created_stop_1211,Stop 1211,32.065361,36.047717,,وادي المدق,,,0,,,,,,
created_stop_1212,Stop 1212,32.065283,36.049516,,طريق بيرين,,,0,,,,,,
created_stop_1213,Stop 1213,32.065147,36.051311,,طريق بيرين,,,0,,,,,,
created_stop_1214,Stop 1214,32.065024,36.053105,,طريق بيرين,,,0,,,,,,
created_stop_1215,Stop 1215,32.064838,36.054891,,طريق بيرين,,,0,,,,,,
created_stop_1216,Stop 1216,32.064592,36.056677,,Total,,,0,,,,,,
created_stop_1217,Stop 1217,32.065325,36.05835,,Total,,,0,,,,,,
created_stop_1218,Stop 1218,32.066092,36.060028,,Total,,,0,,,,,,
created_stop_1219,Stop 1219,32.066251,36.061823,,طريق بيرين,,,0,,,,,,
created_stop_1220,Stop 1220,32.066317,36.063622,,طريق بيرين,,,0,,,,,,
created_stop_1221,Stop 1221,32.06659,36.065407,,دوار خميس,,,0,,,,,,
created_stop_1222,Stop 1222,32.066502,36.067159,,الإيثار,,,0,,,,,,
created_stop_1223,Stop 1223,32.066058,36.068883,,الزواهرة,,,0,,,,,,
created_stop_1224,Stop 1224,32.065739,36.070535,,الزواهرة,,,0,,,,,,
created_stop_1225,Stop 1225,32.064255,36.07187,,شارع بهاء الدين عبد الله,,,0,,,,,,
created_stop_1226,Stop 1226,32.062798,36.073227,,كازية الخلايلة,,,0,,,,,,
created_stop_1227,Stop 1227,32.061294,36.074543,,شارع بهاء الدين عبد الله,,,0,,,,,,
created_stop_1228,Stop 1228,32.05996,36.075978,,شارع بهاء الدين عبد الله,,,0,,,,,,
created_stop_1229,Stop 1229,32.058942,36.077579,,شارع بهاء الدين عبد الله,,,0,,,,,,
created_stop_1230,Stop 1230,32.057575,36.078999,,مخابز تشرين,,,0,,,,,,
created_stop_1231,Stop 1231,32.056267,36.080456,,شارع بهاء الدين عبد الله,,,0,,,,,,
created_stop_1232,Stop 1232,32.056094,36.081986,,شارع بهاء الدين عبد الله,,,0,,,,,,
created_stop_1233,Stop 1233,32.054968,36.083538,,شارع بهاء الدين عبد الله,,,0,,,,,,
created_stop_1234,Stop 1234,32.055287,36.084847,,شارع الشهيد وصفي التل,,,0,,,,,,
created_stop_1235,Stop 1235,32.054443,36.086023,,شارع الشهيد وصفي التل,,,0,,,,,,
created_stop_1236,Stop 1236,32.052487,36.086778,,شارع الثورة العربية الكبرى,,,0,,,,,,
created_stop_1237,Stop 1237,32.050361,36.086338,,شارع الثورة العربية الكبرى,,,0,,,,,,
created_stop_1238,Stop 1238,32.048192,36.086719,,شارع الثورة العربية الكبرى,,,0,,,,,,
created_stop_1239,Stop 1239,32.046306,36.087647,,Orange,,,0,,,,,,
created_stop_1240,Stop 1240,32.044242,36.088303,,الحطيني,,,0,,,,,,
created_stop_1241,Stop 1241,32.042119,36.088421,,وادي الحجر,,,0,,,,,,
created_stop_1242,Stop 1242,32.039914,36.088353,,شارع الثورة العربية الكبرى,,,0,,,,,,
created_stop_1243,Stop 1243,32.037738,36.088736,,الحطيني,,,0,,,,,,
created_stop_1244,Stop 1244,32.035562,36.089119,,أوتوستراد عمان - الزرقاء,,,0,,,,,,
created_stop_1245,Stop 1245,32.074027,36.099785,,مسجد حمزة بن عبدالمطلب,,,0,,,,,,
created_stop_1246,Stop 1246,32.034267,36.089373,,بيت الكباب,,,0,,,,,,
created_stop_1247,Stop 1247,31.962867,35.959558,,,,,0,,,,,,
created_stop_1248,Stop 1248,31.964344,35.960903,,مجمع رغدان - سرافيس الزرقا - سرافيس ماركا,,,0,,,,,,
created_stop_1249,Stop 1249,31.965922,35.962171,,شارع الجيش,,,0,,,,,,
created_stop_1250,Stop 1250,31.967434,35.963486,,شارع الجيش,,,0,,,,,,
created_stop_1251,Stop 1251,31.96868,35.964966,,شارع الجيش,,,0,,,,,,
created_stop_1252,Stop 1252,31.969448,35.966655,,شارع عوف بن الحارث,,,0,,,,,,
created_stop_1253,Stop 1253,31.970239,35.968337,,شارع النخيل,,,0,,,,,,
created_stop_1254,Stop 1254,31.971107,35.969994,,شارع الجيش,,,0,,,,,,
created_stop_1255,Stop 1255,31.972507,35.971376,,شارع الجيش,,,0,,,,,,
created_stop_1256,Stop 1256,31.974569,35.971937,,شارع النخيل,,,0,,,,,,
created_stop_1257,Stop 1257,31.976777,35.971779,,أوتوستراد عمان - الزرقاء,,,0,,,,,,
created_stop_1258,Stop 1258,31.978859,35.972294,,أوتوستراد عمان - الزرقاء,,,0,,,,,,
created_stop_1259,Stop 1259,31.980473,35.973515,,أوتوستراد عمان - الزرقاء,,,0,,,,,,
created_stop_1260,Stop 1260,31.981892,35.9749,,أوتوستراد عمان - الزرقاء,,,0,,,,,,
created_stop_1261,Stop 1261,31.983606,35.976005,,أوتوستراد عمان - الزرقاء,,,0,,,,,,
created_stop_1262,Stop 1262,31.985717,35.976571,,أوتوستراد عمان - الزرقاء,,,0,,,,,,
created_stop_1263,Stop 1263,31.987832,35.97712,,شارع الشهيد,,,0,,,,,,
created_stop_1264,Stop 1264,32.00034,36.006149,,أوتوستراد عمان - الزرقاء,,,0,,,,,,
created_stop_1265,Stop 1265,32.001956,36.007385,,Theodor Schneller school,,,0,,,,,,
created_stop_1266,Stop 1266,32.003814,36.008255,,Theodor Schneller school,,,0,,,,,,
created_stop_1267,Stop 1267,32.005955,36.00789,,work,,,0,,,,,,
created_stop_1268,Stop 1268,32.007953,36.007112,,work,,,0,,,,,,
created_stop_1269,Stop 1269,32.009924,36.007623,,work,,,0,,,,,,
created_stop_1270,Stop 1270,32.010725,36.009262,,work,,,0,,,,,,
created_stop_1271,Stop 1271,32.0108,36.011058,,work,,,0,,,,,,
created_stop_1272,Stop 1272,32.011157,36.012829,,شارع علي بن أبي طالب,,,0,,,,,,
created_stop_1273,Stop 1273,32.011789,36.014549,,شارع علي بن أبي طالب,,,0,,,,,,
created_stop_1274,Stop 1274,32.011478,36.016322,,شارع علي بن أبي طالب,,,0,,,,,,
created_stop_1275,Stop 1275,32.010895,36.018058,,مخيم حطين,,,0,,,,,,
created_stop_1276,Stop 1276,32.010548,36.019832,,مخيم حطين,,,0,,,,,,
created_stop_1277,Stop 1277,32.010348,36.021625,,مخيم حطين,,,0,,,,,,
created_stop_1278,Stop 1278,32.010507,36.023409,,منزل ابو ابراهيم ريان,,,0,,,,,,
created_stop_1279,Stop 1279,32.011268,36.025087,,منزل ابو ابراهيم ريان,,,0,,,,,,
created_stop_1280,Stop 1280,32.012486,36.02657,,منزل ابو ابراهيم ريان,,,0,,,,,,
created_stop_1281,Stop 1281,32.014117,36.027748,,منزل ابو ابراهيم ريان,,,0,,,,,,
created_stop_1282,Stop 1282,32.015366,36.029237,,عين الرصيفة,,,0,,,,,,
created_stop_1283,Stop 1283,32.016202,36.030883,,عين الرصيفة,,,0,,,,,,
created_stop_1284,Stop 1284,32.016427,36.03267,,عين الرصيفة,,,0,,,,,,
created_stop_1285,Stop 1285,32.017162,36.034338,,عين الرصيفة,,,0,,,,,,
created_stop_1286,Stop 1286,32.017934,36.035905,,عين الرصيفة,,,0,,,,,,
created_stop_1287,Stop 1287,32.018124,36.037697,,عين الرصيفة,,,0,,,,,,
created_stop_1288,Stop 1288,32.018135,36.039497,,,,,0,,,,,,
created_stop_1289,Stop 1289,32.018081,36.041296,,الرصيفة,,,0,,,,,,
created_stop_1290,Stop 1290,32.017453,36.043018,,الرصيفة,,,0,,,,,,
created_stop_1291,Stop 1291,32.016896,36.04476,,مكتبة خالد,,,0,,,,,,
created_stop_1292,Stop 1292,32.016779,36.046548,,بلدية الرصيفة,,,0,,,,,,
created_stop_1293,Stop 1293,32.016845,36.048346,,وادي القطار,,,0,,,,,,
created_stop_1294,Stop 1294,32.017113,36.049636,,وادي القطار,,,0,,,,,,
created_stop_1295,Stop 1295,32.019257,36.047486,,بلدية الرصيفة,,,0,,,,,,
created_stop_1296,Stop 1296,32.021443,36.047251,,موسى الشلمي,,,0,,,,,,
created_stop_1297,Stop 1297,32.023273,36.047056,,موسى الشلمي,,,0,,,,,,
created_stop_1298,Stop 1298,32.023785,36.045513,,موسى الشلمي,,,0,,,,,,
created_stop_1299,Stop 1299,32.025746,36.04558,,موسى الشلمي,,,0,,,,,,
created_stop_1300,Stop 1300,32.027794,36.045309,,مطعم على كيفك,,,0,,,,,,
created_stop_1301,Stop 1301,31.996822,35.918668,,المؤسسة الاستهلاكية العسكرية,,,0,,,,,,
created_stop_1302,Stop 1302,31.998446,35.918075,,شارع الأردن,,,0,,,,,,
created_stop_1303,Stop 1303,31.964349,35.912431,,دكان الحي,,,0,,,,,,
created_stop_1304,Stop 1304,31.959273,35.918124,,Picadilly Pub,,,0,,,,,,
created_stop_1305,Stop 1305,31.965737,35.912045,,شارع عقربة,,,0,,,,,,
created_stop_1306,Stop 1306,31.969122,35.907652,,شارع الشريف الرضي,,,0,,,,,,
created_stop_1307,Stop 1307,31.961496,35.90382,,شارع أحمد بن تيمية,,,0,,,,,,
created_stop_1308,Stop 1308,31.959999,35.905151,,,,,0,,,,,,
created_stop_1309,Stop 1309,31.957304,35.907491,,,,,0,,,,,,
created_stop_1310,Stop 1310,31.955502,35.909129,,شارع الشريف الحسين بن علي,,,0,,,,,,
created_stop_1311,Stop 1311,31.951034,35.924195,,شارع 9 شعبان,,,0,,,,,,
created_stop_1312,Stop 1312,31.950845,35.921725,,جبل عمان,,,0,,,,,,
created_stop_1313,Stop 1313,31.950694,35.920673,,,,,0,,,,,,
created_stop_1314,Stop 1314,31.950702,35.918707,,Haboob,,,0,,,,,,
created_stop_1315,Stop 1315,31.951049,35.917053,,صيدلية الكيالي,,,0,,,,,,
created_stop_1316,Stop 1316,31.951824,35.915454,,شاورما ريم,,,0,,,,,,
created_stop_1317,Stop 1317,31.952572,35.913764,,ممر أبو سلمة الخلال,,,0,,,,,,
created_stop_1318,Stop 1318,31.953379,35.912087,,شارع محمد حافظ معاذ,,,0,,,,,,
created_stop_1319,Stop 1319,31.94968,35.91716,,,,,0,,,,,,
created_stop_1320,Stop 1320,31.948548,35.918686,,,,,0,,,,,,
created_stop_1321,Stop 1321,31.948201,35.920464,,,,,0,,,,,,
created_stop_1322,Stop 1322,31.948225,35.922207,,,,,0,,,,,,
created_stop_1323,Stop 1323,31.948227,35.924007,,,,,0,,,,,,
created_stop_1324,Stop 1324,31.948225,35.925807,,,,,0,,,,,,
created_stop_1325,Stop 1325,31.949338,35.926893,,,,,0,,,,,,
created_stop_1326,Stop 1326,31.950883,35.927233,,Shams el Balad,,,0,,,,,,
created_stop_1327,Stop 1327,31.951345,35.928922,,شارع معاذ بن جبل,,,0,,,,,,
created_stop_1328,Stop 1328,31.950992,35.932304,,Al Ghanim electronics,,,0,,,,,,
created_stop_1329,Stop 1329,31.949361,35.933136,,شارع خرفان,,,0,,,,,,
created_stop_1330,Stop 1330,31.965181,35.959637,,,,,0,,,,,,
created_stop_1331,Stop 1331,31.967389,35.960573,,,,,0,,,,,,
created_stop_1332,Stop 1332,31.969185,35.959805,,,,,0,,,,,,
created_stop_1333,Stop 1333,31.97055,35.957835,,,,,0,,,,,,
created_stop_1334,Stop 1334,31.970657,35.956561,,,,,0,,,,,,
created_stop_1335,Stop 1335,31.97095,35.954777,,,,,0,,,,,,
created_stop_1336,Stop 1336,31.971272,35.952997,,شارع الأمير راشد بن الحسن,,,0,,,,,,
created_stop_1337,Stop 1337,31.971938,35.951307,,,,,0,,,,,,
created_stop_1338,Stop 1338,31.97446,35.950103,,شارع عمير بن أبي وقاص ممر 3,,,0,,,,,,
created_stop_1339,Stop 1339,31.976084,35.948963,,,,,0,,,,,,
created_stop_1340,Stop 1340,31.976291,35.948496,,,,,0,,,,,,
created_stop_1341,Stop 1341,31.976373,35.946122,,,,,0,,,,,,
created_stop_1342,Stop 1342,31.976837,35.9448,,,,,0,,,,,,
created_stop_1343,Stop 1343,31.978663,35.943168,,شارع أسعد الخليل,,,0,,,,,,
created_stop_1344,Stop 1344,31.979605,35.941553,,,,,0,,,,,,
created_stop_1345,Stop 1345,31.980503,35.940193,,شارع الأمير حمزة بن الحسين,,,0,,,,,,
created_stop_1346,Stop 1346,31.982478,35.941015,,,,,0,,,,,,
created_stop_1347,Stop 1347,31.984406,35.941898,,شارع محمود نويران الخادم,,,0,,,,,,
created_stop_1348,Stop 1348,31.986371,35.942734,,شارع الأمير حمزة بن الحسين,,,0,,,,,,
created_stop_1349,Stop 1349,31.988417,35.943439,,شارع الأمير حمزة بن الحسين,,,0,,,,,,
created_stop_1350,Stop 1350,31.963945,35.959095,,,,,0,,,,,,
created_stop_1351,Stop 1351,31.948513,35.931583,,,,,0,,,,,,
created_stop_1352,Stop 1352,31.946934,35.930486,,,,,0,,,,,,
created_stop_1353,Stop 1353,31.94705,35.928768,,,,,0,,,,,,
created_stop_1354,Stop 1354,31.947963,35.927127,,,,,0,,,,,,
created_stop_1355,Stop 1355,31.950691,35.9149,,,,,0,,,,,,
created_stop_1356,Stop 1356,31.950914,35.91311,,,,,0,,,,,,
created_stop_1357,Stop 1357,31.950933,35.91131,,,,,0,,,,,,
created_stop_1358,Stop 1358,31.951628,35.90999,,Aqilah Hospital,,,0,,,,,,
created_stop_1359,Stop 1359,31.954832,35.930813,,Luzmilla Hospital,,,0,,,,,,
created_stop_1360,Stop 1360,31.95507,35.929563,,شارع فؤاد سليم,,,0,,,,,,
created_stop_1361,Stop 1361,31.95601,35.92804,,شارع محمد علي العجلوني,,,0,,,,,,
created_stop_1362,Stop 1362,31.956563,35.926305,,Dimitri's Coffee,,,0,,,,,,
created_stop_1363,Stop 1363,31.957206,35.924592,,,,,0,,,,,,
created_stop_1364,Stop 1364,31.957746,35.922847,,,,,0,,,,,,
created_stop_1365,Stop 1365,31.958286,35.921101,,,,,0,,,,,,
created_stop_1366,Stop 1366,31.958011,35.919617,,,,,0,,,,,,
created_stop_1367,Stop 1367,31.959033,35.916116,,شارع بيت نوبا,,,0,,,,,,
created_stop_1368,Stop 1368,31.958869,35.914614,,,,,0,,,,,,
created_stop_1369,Stop 1369,31.958087,35.915457,,,,,0,,,,,,
created_stop_1370,Stop 1370,31.957167,35.91684,,,,,0,,,,,,
created_stop_1371,Stop 1371,31.956473,35.918544,,شارع الكرملي,,,0,,,,,,
created_stop_1372,Stop 1372,31.956279,35.920336,,St. Francis House,,,0,,,,,,
created_stop_1373,Stop 1373,31.954921,35.927586,,شارع نقولا غنما,,,0,,,,,,
created_stop_1374,Stop 1374,31.953822,35.928676,,,,,0,,,,,,
created_stop_1375,Stop 1375,31.953733,35.929606,,,,,0,,,,,,
created_stop_1376,Stop 1376,31.956443,35.932321,,شارع صلاح الدين الأيوبي,,,0,,,,,,
created_stop_1377,Stop 1377,31.957945,35.931059,,شارع سعيد الدرة,,,0,,,,,,
created_stop_1378,Stop 1378,31.959417,35.929717,,,,,0,,,,,,
created_stop_1379,Stop 1379,31.960064,35.928064,,شارع إبراهيم أبو دية,,,0,,,,,,
created_stop_1380,Stop 1380,31.960036,35.926265,,شارع موفق السلطي,,,0,,,,,,
created_stop_1381,Stop 1381,31.961432,35.921062,,شارع إسماعيل بابوق,,,0,,,,,,
created_stop_1382,Stop 1382,31.963084,35.92064,,,,,0,,,,,,
created_stop_1383,Stop 1383,31.96432,35.91944,,,,,0,,,,,,
created_stop_1384,Stop 1384,31.965669,35.918173,,شارع سلمة,,,0,,,,,,
created_stop_1385,Stop 1385,31.965864,35.916693,,نقل جماعي من جبل حسين الى وسط البلد,,,0,,,,,,
created_stop_1386,Stop 1386,31.964641,35.91582,,شارع جمال الدين الأفغاني,,,0,,,,,,
created_stop_1387,Stop 1387,31.962747,35.916716,,Pharmacy One,,,0,,,,,,
created_stop_1388,Stop 1388,31.940353,35.954332,,تقاطع الجسور العشرة,,,0,,,,,,
created_stop_1389,Stop 1389,31.93932,35.955791,,الجسور العشره,,,0,,,,,,
created_stop_1390,Stop 1390,31.939081,35.95757,,شارع البراق,,,0,,,,,,
created_stop_1391,Stop 1391,31.937948,35.959097,,شارع البراق,,,0,,,,,,
created_stop_1392,Stop 1392,31.936659,35.961215,,شارع الوليد بن أبان,,,0,,,,,,
created_stop_1393,Stop 1393,31.935689,35.961476,,شارع الوليد بن أبان,,,0,,,,,,
created_stop_1394,Stop 1394,31.933882,35.960428,,Queen Rania Al Abdulla  Park,,,0,,,,,,
created_stop_1395,Stop 1395,31.932368,35.960407,,Queen Rania Al Abdulla  Park,,,0,,,,,,
created_stop_1396,Stop 1396,31.930829,35.960075,,أم نوارة,,,0,,,,,,
created_stop_1397,Stop 1397,31.929715,35.961578,,أم نوارة,,,0,,,,,,
created_stop_1398,Stop 1398,31.928602,35.961762,,أم نوارة,,,0,,,,,,
created_stop_1399,Stop 1399,31.929131,35.960158,,شارع الوليد بن أبان,,,0,,,,,,
created_stop_1400,Stop 1400,31.928444,35.95938,,شارع الوليد بن أبان,,,0,,,,,,
created_stop_1401,Stop 1401,31.926441,35.959724,,شارع الوليد بن أبان,,,0,,,,,,
created_stop_1402,Stop 1402,31.926316,35.95793,,شارع النوري الحديد,,,0,,,,,,
created_stop_1403,Stop 1403,31.926282,35.956133,,شارع النوري الحديد,,,0,,,,,,
created_stop_1404,Stop 1404,31.928399,35.955999,,شارع زمل الغيثي,,,0,,,,,,
created_stop_1405,Stop 1405,31.930015,35.955287,,شارع زمل الغيثي,,,0,,,,,,
created_stop_1406,Stop 1406,31.927968,35.954906,,شارع النوري الحديد,,,0,,,,,,
created_stop_1407,Stop 1407,31.925769,35.954645,,شارع النوري الحديد,,,0,,,,,,
created_stop_1408,Stop 1408,31.923692,35.955215,,شارع الوليد بن أبان,,,0,,,,,,
created_stop_1409,Stop 1409,31.921758,35.956079,,مركز ابو فهمي للمنظفات,,,0,,,,,,
created_stop_1410,Stop 1410,31.919552,35.95619,,شارع النوري الحديد,,,0,,,,,,
created_stop_1411,Stop 1411,31.917331,35.956111,,ميدو,,,0,,,,,,
created_stop_1412,Stop 1412,31.91629,35.954723,,ميدو,,,0,,,,,,
created_stop_1413,Stop 1413,31.916126,35.952953,,منطقة القويسمة,,,0,,,,,,
created_stop_1414,Stop 1414,31.916811,35.951242,,منطقة القويسمة,,,0,,,,,,
created_stop_1415,Stop 1415,31.917322,35.94949,,منطقة القويسمة,,,0,,,,,,
created_stop_1416,Stop 1416,31.917748,35.947724,,منطقة القويسمة,,,0,,,,,,
created_stop_1417,Stop 1417,31.918328,35.945998,,شارع أمير بن البكير,,,0,,,,,,
created_stop_1418,Stop 1418,31.919085,35.944313,,شارع أمير بن البكير,,,0,,,,,,
created_stop_1419,Stop 1419,31.920356,35.942837,,شارع الصراط,,,0,,,,,,
created_stop_1420,Stop 1420,31.921868,35.942374,,باقو لقطع السيارات الفرنسية,,,0,,,,,,
created_stop_1421,Stop 1421,31.922607,35.938263,,,,,0,,,,,,
created_stop_1422,Stop 1422,31.924821,35.938097,,شارع الصاحب بن عباد,,,0,,,,,,
created_stop_1423,Stop 1423,31.927026,35.937915,,شارع ابن عبدون,,,0,,,,,,
created_stop_1424,Stop 1424,31.928982,35.937074,,بنك الأردني الكويتي,,,0,,,,,,
created_stop_1425,Stop 1425,31.930664,35.9359,,مركز امن الاشرفية,,,0,,,,,,
created_stop_1426,Stop 1426,31.932142,35.934559,,شارع الأمير الحسن,,,0,,,,,,
created_stop_1427,Stop 1427,31.933535,35.933159,,Cairo Amman Bank,,,0,,,,,,
created_stop_1428,Stop 1428,31.935177,35.931948,,Red Crescent HQ,,,0,,,,,,
created_stop_1429,Stop 1429,31.936811,35.930806,,شارع الشافعي,,,0,,,,,,
created_stop_1430,Stop 1430,31.937993,35.929629,,شارع الأمير الحسن,,,0,,,,,,
created_stop_1431,Stop 1431,31.940099,35.929162,,شارع الخلود,,,0,,,,,,
created_stop_1432,Stop 1432,31.942267,35.929179,,شارع أبو ظبي,,,0,,,,,,
created_stop_1433,Stop 1433,31.968264,35.967124,,شارع الملك عبدالله الأول,,,0,,,,,,
created_stop_1434,Stop 1434,31.968595,35.968857,,محطة عمان,,,0,,,,,,
created_stop_1435,Stop 1435,31.968749,35.9707,,,,,0,,,,,,
created_stop_1436,Stop 1436,31.969735,35.972271,,,,,0,,,,,,
created_stop_1437,Stop 1437,31.971646,35.973139,,,,,0,,,,,,
created_stop_1438,Stop 1438,31.973345,35.97422,,مركز ماركا الصحي,,,0,,,,,,
created_stop_1439,Stop 1439,31.974639,35.975684,,المحاكم العسكرية,,,0,,,,,,
created_stop_1440,Stop 1440,31.975541,35.976557,,حديقة الطيور ماركا,,,0,,,,,,
created_stop_1441,Stop 1441,31.976927,35.978768,,,,,0,,,,,,
created_stop_1442,Stop 1442,31.977695,35.980445,,شارع المطار,,,0,,,,,,
created_stop_1443,Stop 1443,31.978284,35.98218,,شارع الملك عبدالله الأول,,,0,,,,,,
created_stop_1444,Stop 1444,31.979161,35.983822,,,,,0,,,,,,
created_stop_1445,Stop 1445,31.979839,35.984965,,,,,0,,,,,,
created_stop_1446,Stop 1446,31.981412,35.986922,,مطعم ينابيع الشام,,,0,,,,,,
created_stop_1447,Stop 1447,31.981916,35.989295,,مسجد المشفى العسكري,,,0,,,,,,
created_stop_1448,Stop 1448,31.982111,35.990457,,,,,0,,,,,,
created_stop_1449,Stop 1449,31.982347,35.992247,,شارع ياسين الهاشمي,,,0,,,,,,
created_stop_1450,Stop 1450,31.983144,35.993909,,شارع الملك عبدالله الأول,,,0,,,,,,
created_stop_1451,Stop 1451,31.984277,35.995458,,,,,0,,,,,,
created_stop_1452,Stop 1452,31.985408,35.997008,,,,,0,,,,,,
created_stop_1453,Stop 1453,31.986529,35.998562,,,,,0,,,,,,
created_stop_1454,Stop 1454,31.987806,36.00003,,,,,0,,,,,,
created_stop_1455,Stop 1455,31.989316,36.001351,,,,,0,,,,,,
created_stop_1456,Stop 1456,31.990884,36.002628,,شارع الملك عبدالله الأول,,,0,,,,,,
created_stop_1457,Stop 1457,31.992857,36.003423,,,,,0,,,,,,
created_stop_1458,Stop 1458,31.994919,36.004099,,,,,0,,,,,,
created_stop_1459,Stop 1459,31.996981,36.004773,,,,,0,,,,,,
created_stop_1460,Stop 1460,32.017116,36.050708,,وادي القطار,,,0,,,,,,
created_stop_1461,Stop 1461,32.017571,36.052469,,International Train,,,0,,,,,,
created_stop_1462,Stop 1462,32.01837,36.054139,,International Train,,,0,,,,,,
created_stop_1463,Stop 1463,32.019452,36.055712,,International Train,,,0,,,,,,
created_stop_1464,Stop 1464,32.020177,36.057407,,International Train,,,0,,,,,,
created_stop_1465,Stop 1465,32.020829,36.059128,,شارع الشهيد وصفي التل,,,0,,,,,,
created_stop_1466,Stop 1466,32.021372,36.060861,,شارع الشهيد وصفي التل,,,0,,,,,,
created_stop_1467,Stop 1467,32.021316,36.062658,,شارع الشهيد وصفي التل,,,0,,,,,,
created_stop_1468,Stop 1468,32.020841,36.064413,,شارع الشهيد وصفي التل,,,0,,,,,,
created_stop_1469,Stop 1469,32.020958,36.066201,,شارع الشهيد وصفي التل,,,0,,,,,,
created_stop_1470,Stop 1470,32.02163,36.067888,,شارع محمد ماجد العيطان,,,0,,,,,,
created_stop_1471,Stop 1471,32.022687,36.069472,,شارع محمد ماجد العيطان,,,0,,,,,,
created_stop_1472,Stop 1472,32.024039,36.070875,,شارع ال 100,,,0,,,,,,
created_stop_1473,Stop 1473,32.025975,36.071589,,شارع ال 100,,,0,,,,,,
created_stop_1474,Stop 1474,32.027747,36.07253,,شارع الملك عبدالله الثاني بن الحسين,,,0,,,,,,
created_stop_1475,Stop 1475,32.029305,36.073816,,شارع الملك عبدالله الثاني بن الحسين,,,0,,,,,,
created_stop_1476,Stop 1476,32.030755,36.075175,,مغسلة العربي,,,0,,,,,,
created_stop_1477,Stop 1477,32.031958,36.07669,,مغسلة العربي,,,0,,,,,,
created_stop_1478,Stop 1478,32.03316,36.078205,,مغسلة العربي,,,0,,,,,,
created_stop_1479,Stop 1479,32.034344,36.079729,,International Train,,,0,,,,,,
created_stop_1480,Stop 1480,32.03552,36.081257,,International Train,,,0,,,,,,
created_stop_1481,Stop 1481,32.037188,36.08231,,شارع الشهيد وصفي التل,,,0,,,,,,
created_stop_1482,Stop 1482,32.039352,36.082735,,شارع الشهيد وصفي التل,,,0,,,,,,
created_stop_1483,Stop 1483,32.041515,36.083162,,شارع الشهيد وصفي التل,,,0,,,,,,
created_stop_1484,Stop 1484,32.043597,36.083781,,Jopetrol,,,0,,,,,,
created_stop_1485,Stop 1485,32.045785,36.084093,,طوطال,,,0,,,,,,
created_stop_1486,Stop 1486,32.048008,36.084203,,مخبز قشطة,,,0,,,,,,
created_stop_1487,Stop 1487,32.050221,36.084401,,سجاد صيدا,,,0,,,,,,
created_stop_1488,Stop 1488,32.052428,36.084642,,اسواق ابو علي القيلاوي,,,0,,,,,,
created_stop_1489,Stop 1489,32.05679,36.084724,,شارع الملك طلال,,,0,,,,,,
created_stop_1490,Stop 1490,32.058295,36.085382,,Orange Telecom,,,0,,,,,,
created_stop_1491,Stop 1491,32.058767,36.087134,,مركز أمن المدينة,,,0,,,,,,
created_stop_1492,Stop 1492,32.060109,36.088549,,شارع الملك طلال,,,0,,,,,,
created_stop_1493,Stop 1493,32.060401,36.090328,,شارع الملك طلال,,,0,,,,,,
created_stop_1494,Stop 1494,32.060677,36.092113,,Cairo Amman Bank,,,0,,,,,,
created_stop_1495,Stop 1495,32.011778,36.015449,,شارع علي بن أبي طالب,,,0,,,,,,
created_stop_1496,Stop 1496,32.010833,36.010158,,work,,,0,,,,,,
created_stop_1497,Stop 1497,31.965363,35.963187,,شارع الملك عبدالله الأول,,,0,,,,,,
created_stop_1498,Stop 1498,31.963534,35.962174,,,,,0,,,,,,
created_stop_1499,Stop 1499,31.935901,35.962801,,شارع الوليد بن أبان,,,0,,,,,,
created_stop_1500,Stop 1500,31.934939,35.964424,,شارع الوليد بن أبان,,,0,,,,,,
created_stop_1501,Stop 1501,31.933836,35.965986,,شارع الوليد بن أبان,,,0,,,,,,
created_stop_1502,Stop 1502,31.932783,35.96757,,شارع الحكمة,,,0,,,,,,
created_stop_1503,Stop 1503,31.932666,35.969849,,شارع الحكمة,,,0,,,,,,
created_stop_1504,Stop 1504,31.930525,35.96929,,شارع الحكمة,,,0,,,,,,
created_stop_1505,Stop 1505,31.928964,35.969706,,شارع الحكمة,,,0,,,,,,
created_stop_1506,Stop 1506,31.927197,35.970239,,شارع الحكمة,,,0,,,,,,
created_stop_1507,Stop 1507,31.928365,35.9717,,شارع الحكمة,,,0,,,,,,
created_stop_1508,Stop 1508,31.930559,35.971978,,شارع الحكمة,,,0,,,,,,
created_stop_1509,Stop 1509,31.93207,35.971752,,شارع الحكمة,,,0,,,,,,
created_stop_1510,Stop 1510,31.932526,35.973507,,شارع الجسور العشارة,,,0,,,,,,
created_stop_1511,Stop 1511,31.932636,35.975285,,شارع الجسور العشارة,,,0,,,,,,
created_stop_1512,Stop 1512,31.932259,35.977059,,شارع الجسور العشارة,,,0,,,,,,
created_stop_1513,Stop 1513,31.932185,35.978853,,شارع الجسور العشارة,,,0,,,,,,
created_stop_1514,Stop 1514,31.93221,35.980652,,المبرك,,,0,,,,,,
created_stop_1515,Stop 1515,31.931926,35.982427,,المبرك,,,0,,,,,,
created_stop_1516,Stop 1516,31.931171,35.984118,,المبرك,,,0,,,,,,
created_stop_1517,Stop 1517,31.930276,35.985763,,المبرك,,,0,,,,,,
created_stop_1518,Stop 1518,31.929376,35.987408,,المبرك,,,0,,,,,,
created_stop_1519,Stop 1519,31.92767,35.988543,,بيتي,,,0,,,,,,
created_stop_1520,Stop 1520,31.926041,35.989743,,بيتي,,,0,,,,,,
created_stop_1521,Stop 1521,31.924917,35.991277,,,,,0,,,,,,
created_stop_1522,Stop 1522,31.924406,35.993029,,,,,0,,,,,,
created_stop_1523,Stop 1523,31.92371,35.994736,,,,,0,,,,,,
created_stop_1524,Stop 1524,31.92318,35.996475,,,,,0,,,,,,
created_stop_1525,Stop 1525,31.922836,35.998253,,,,,0,,,,,,
created_stop_1526,Stop 1526,31.922491,36.000031,,,,,0,,,,,,
created_stop_1527,Stop 1527,31.921491,36.001532,,,,,0,,,,,,
created_stop_1528,Stop 1528,31.920294,36.002995,,,,,0,,,,,,
created_stop_1529,Stop 1529,31.919491,36.004672,,,,,0,,,,,,
created_stop_1530,Stop 1530,31.918799,36.006383,,وادي المقرن,,,0,,,,,,
created_stop_1531,Stop 1531,31.918206,36.008112,,وادي المقرن,,,0,,,,,,
created_stop_1532,Stop 1532,31.918909,36.009799,,وادي المقرن,,,0,,,,,,
created_stop_1533,Stop 1533,31.919286,36.011544,,وادي المقرن,,,0,,,,,,
created_stop_1534,Stop 1534,31.918896,36.01331,,وادي المقرن,,,0,,,,,,
created_stop_1535,Stop 1535,31.917978,36.014942,,وادي المقرن,,,0,,,,,,
created_stop_1536,Stop 1536,31.92015,36.014346,,وادي المقرن,,,0,,,,,,
created_stop_1537,Stop 1537,31.921184,36.012752,,وادي المقرن,,,0,,,,,,
created_stop_1538,Stop 1538,31.922113,36.011461,,وادي المقرن,,,0,,,,,,
created_stop_1539,Stop 1539,31.919145,36.015391,,وادي المقرن,,,0,,,,,,
created_stop_1540,Stop 1540,31.93245,35.969916,,شارع الحكمة,,,0,,,,,,
created_stop_1541,Stop 1541,31.941977,35.922195,,شارع القدس,,,0,,,,,,
created_stop_1542,Stop 1542,31.940527,35.922309,,شارع حليمة السعدية,,,0,,,,,,
created_stop_1543,Stop 1543,31.938629,35.923684,,شارع القدس,,,0,,,,,,
created_stop_1544,Stop 1544,31.936541,35.923368,,شارع القدس,,,0,,,,,,
created_stop_1545,Stop 1545,31.93452,35.922621,,,,,0,,,,,,
created_stop_1546,Stop 1546,31.932497,35.921876,,شارع القدس,,,0,,,,,,
created_stop_1547,Stop 1547,31.930583,35.92098,,,,,0,,,,,,
created_stop_1548,Stop 1548,31.929003,35.919715,,,,,0,,,,,,
created_stop_1549,Stop 1549,31.927402,35.918541,,غابة شهداء عمان,,,0,,,,,,
created_stop_1550,Stop 1550,31.927005,35.916785,,JoPetrol,,,0,,,,,,
created_stop_1551,Stop 1551,31.927411,35.915019,,شارع القدس,,,0,,,,,,
created_stop_1552,Stop 1552,31.927505,35.913234,,شارع الخيزران,,,0,,,,,,
created_stop_1553,Stop 1553,31.926895,35.911514,,سامح مول,,,0,,,,,,
created_stop_1554,Stop 1554,31.925294,35.910606,,شارع محمد الفاتح,,,0,,,,,,
created_stop_1555,Stop 1555,31.923237,35.911271,,,,,0,,,,,,
created_stop_1556,Stop 1556,31.921103,35.91173,,شارع القدس,,,0,,,,,,
created_stop_1557,Stop 1557,31.919253,35.910888,,شارع القدس,,,0,,,,,,
created_stop_1558,Stop 1558,31.918866,35.909705,,شارع القدس,,,0,,,,,,
created_stop_1559,Stop 1559,31.918146,35.907422,,شارع القدس,,,0,,,,,,
created_stop_1560,Stop 1560,31.917688,35.905661,,شارع القدس,,,0,,,,,,
created_stop_1561,Stop 1561,31.917245,35.903899,,شارع الأمير هاشم بن الحسين,,,0,,,,,,
created_stop_1562,Stop 1562,31.916024,35.902656,,شارع القدس,,,0,,,,,,
created_stop_1563,Stop 1563,31.914004,35.902001,,شارع خالد الخصيلات,,,0,,,,,,
created_stop_1564,Stop 1564,31.913106,35.900349,,,,,0,,,,,,
created_stop_1565,Stop 1565,31.912262,35.898714,,شارع القدس,,,0,,,,,,
created_stop_1566,Stop 1566,31.911563,35.897006,,شارع القدس,,,0,,,,,,
created_stop_1567,Stop 1567,31.910877,35.895294,,,,,0,,,,,,
created_stop_1568,Stop 1568,31.910467,35.89353,,سيراميك,,,0,,,,,,
created_stop_1569,Stop 1569,31.910399,35.891932,,شارع هرم بن حيان,,,0,,,,,,
created_stop_1570,Stop 1570,31.909764,35.889997,,شارع القدس,,,0,,,,,,
created_stop_1571,Stop 1571,31.90832,35.888639,,,,,0,,,,,,
created_stop_1572,Stop 1572,31.906945,35.886967,,شارع القدس,,,0,,,,,,
created_stop_1573,Stop 1573,31.906748,35.886143,,شارع القدس,,,0,,,,,,
created_stop_1574,Stop 1574,31.909177,35.894234,,شارع هرم بن حيان,,,0,,,,,,
created_stop_1575,Stop 1575,31.90906,35.896028,,,,,0,,,,,,
created_stop_1576,Stop 1576,31.908884,35.89782,,,,,0,,,,,,
created_stop_1577,Stop 1577,31.90862,35.899604,,شارع هرم بن حيان,,,0,,,,,,
created_stop_1578,Stop 1578,31.908738,35.901394,,,,,0,,,,,,
created_stop_1579,Stop 1579,31.907979,35.903057,,,,,0,,,,,,
created_stop_1580,Stop 1580,31.906832,35.90384,,,,,0,,,,,,
created_stop_1581,Stop 1581,31.907629,35.905099,,شارع بشر بن البراء,,,0,,,,,,
created_stop_1582,Stop 1582,31.906906,35.906796,,,,,0,,,,,,
created_stop_1583,Stop 1583,31.906171,35.90849,,شارع بشر بن البراء,,,0,,,,,,
created_stop_1584,Stop 1584,31.905943,35.910273,,,,,0,,,,,,
created_stop_1585,Stop 1585,31.905822,35.912061,,,,,0,,,,,,
created_stop_1586,Stop 1586,31.903819,35.912473,,,,,0,,,,,,
created_stop_1587,Stop 1587,31.901635,35.912283,,شارع عائشة التيمورية,,,0,,,,,,
created_stop_1588,Stop 1588,31.899597,35.91239,,بيت الزرب والمنسف,,,0,,,,,,
created_stop_1589,Stop 1589,31.897949,35.913596,,شارع عائشة التيمورية,,,0,,,,,,
created_stop_1590,Stop 1590,31.896122,35.914407,,شارع الحرية,,,0,,,,,,
created_stop_1591,Stop 1591,31.944348,35.922748,,شارع علي بن أبي طالب,,,0,,,,,,
created_stop_1592,Stop 1592,32.018702,35.866805,,شارع أحمد الطراونة,,,0,,,,,,
created_stop_1593,Stop 1593,32.019883,35.868894,,,,,0,,,,,,
created_stop_1594,Stop 1594,32.02062,35.870051,,,,,0,,,,,,
created_stop_1595,Stop 1595,32.021848,35.871395,,,,,0,,,,,,
created_stop_1596,Stop 1596,32.024058,35.871577,,,,,0,,,,,,
created_stop_1597,Stop 1597,32.026277,35.871631,,,,,0,,,,,,
created_stop_1598,Stop 1598,32.026953,35.918618,,شارع عايد موسى السويلميين,,,0,,,,,,
created_stop_1599,Stop 1599,32.026331,35.920345,,شارع ياجوز,,,0,,,,,,
created_stop_1600,Stop 1600,32.025732,35.922075,,شارع ياجوز,,,0,,,,,,
created_stop_1601,Stop 1601,32.025849,35.923864,,شارع ياجوز,,,0,,,,,,
created_stop_1602,Stop 1602,32.026348,35.925812,,شارع ياجوز,,,0,,,,,,
created_stop_1603,Stop 1603,32.026427,35.927433,,شارع ياجوز,,,0,,,,,,
created_stop_1604,Stop 1604,32.026572,35.929224,,شارع ياجوز,,,0,,,,,,
created_stop_1605,Stop 1605,32.025769,35.930885,,شارع ياجوز,,,0,,,,,,
created_stop_1606,Stop 1606,32.024688,35.932457,,شارع ياجوز,,,0,,,,,,
created_stop_1607,Stop 1607,32.023739,35.93408,,شارع الأمير الحسين بن عبدالله,,,0,,,,,,
created_stop_1608,Stop 1608,32.023143,35.935813,,شارع الأمير الحسين بن عبدالله,,,0,,,,,,
created_stop_1609,Stop 1609,32.022563,35.937551,,شارع الأمير الحسين بن عبدالله,,,0,,,,,,
created_stop_1610,Stop 1610,32.022011,35.939294,,شارع ياجوز,,,0,,,,,,
created_stop_1611,Stop 1611,32.021501,35.941046,,شارع ياجوز,,,0,,,,,,
created_stop_1612,Stop 1612,32.020955,35.94279,,شارع ياجوز,,,0,,,,,,
created_stop_1613,Stop 1613,32.020521,35.944545,,شارع ياجوز,,,0,,,,,,
created_stop_1614,Stop 1614,32.020667,35.946339,,شارع ياجوز,,,0,,,,,,
created_stop_1615,Stop 1615,32.020901,35.948128,,ملاعب القوات المسلحة الأردنية,,,0,,,,,,
created_stop_1616,Stop 1616,32.021879,35.949708,,ملاعب القوات المسلحة الأردنية,,,0,,,,,,
created_stop_1617,Stop 1617,32.023173,35.951171,,ملاعب القوات المسلحة الأردنية,,,0,,,,,,
created_stop_1618,Stop 1618,32.023979,35.952843,,شارع ياجوز,,,0,,,,,,
created_stop_1619,Stop 1619,32.024539,35.954583,,شارع ياجوز,,,0,,,,,,
created_stop_1620,Stop 1620,32.02459,35.956358,,شارع ياجوز,,,0,,,,,,
created_stop_1621,Stop 1621,32.023266,35.957677,,شارع ياجوز,,,0,,,,,,
created_stop_1622,Stop 1622,32.021213,35.958368,,شارع ياجوز,,,0,,,,,,
created_stop_1623,Stop 1623,32.019621,35.959539,,شارع طبربور,,,0,,,,,,
created_stop_1624,Stop 1624,32.019362,35.961283,,شارع طبربور,,,0,,,,,,
created_stop_1625,Stop 1625,32.020427,35.962829,,شارع طبربور,,,0,,,,,,
created_stop_1626,Stop 1626,32.021595,35.964342,,شارع الأميرة عالية الفيصل,,,0,,,,,,
created_stop_1627,Stop 1627,32.023069,35.965673,,Basketball,,,0,,,,,,
created_stop_1628,Stop 1628,32.02434,35.967126,,Basketball,,,0,,,,,,
created_stop_1629,Stop 1629,32.024775,35.968881,,Basketball,,,0,,,,,,
created_stop_1630,Stop 1630,32.0246,35.970662,,Basketball,,,0,,,,,,
created_stop_1631,Stop 1631,32.023227,35.972036,,شارع الأميرة عالية الفيصل,,,0,,,,,,
created_stop_1632,Stop 1632,32.022516,35.973702,,شارع الأميرة عالية الفيصل,,,0,,,,,,
created_stop_1633,Stop 1633,32.023197,35.97537,,شارع الأميرة عالية الفيصل,,,0,,,,,,
created_stop_1634,Stop 1634,32.024825,35.976597,,,,,0,,,,,,
created_stop_1635,Stop 1635,32.025923,35.978104,,Jo Petrol,,,0,,,,,,
created_stop_1636,Stop 1636,32.025644,35.979872,,Jo Petrol,,,0,,,,,,
created_stop_1637,Stop 1637,32.024844,35.981549,,Jo Petrol,,,0,,,,,,
created_stop_1638,Stop 1638,32.023987,35.983207,,Jo Petrol,,,0,,,,,,
created_stop_1639,Stop 1639,32.023323,35.984924,,Jo Petrol,,,0,,,,,,
created_stop_1640,Stop 1640,32.022528,35.9866,,Jo Petrol,,,0,,,,,,
created_stop_1641,Stop 1641,32.02111,35.987973,,Jo Petrol,,,0,,,,,,
created_stop_1642,Stop 1642,32.01944,35.989161,,Jo Petrol,,,0,,,,,,
created_stop_1643,Stop 1643,32.017803,35.990378,,Jo Petrol,,,0,,,,,,
created_stop_1644,Stop 1644,32.016739,35.991935,,وادي زربي,,,0,,,,,,
created_stop_1645,Stop 1645,32.016598,35.993727,,وادي زربي,,,0,,,,,,
created_stop_1646,Stop 1646,32.017109,35.995471,,وادي حويجر,,,0,,,,,,
created_stop_1647,Stop 1647,32.018385,35.99694,,وادي حويجر,,,0,,,,,,
created_stop_1648,Stop 1648,32.01901,35.998623,,وادي حويجر,,,0,,,,,,
created_stop_1649,Stop 1649,32.018718,36.000407,,وادي حويجر,,,0,,,,,,
created_stop_1650,Stop 1650,32.018674,36.002205,,شارع الملك عبدالله الثاني بن الحسين,,,0,,,,,,
created_stop_1651,Stop 1651,32.018737,36.004004,,شارع الملك عبدالله الثاني بن الحسين,,,0,,,,,,
created_stop_1652,Stop 1652,32.018971,36.005788,,مدرسة الرشيد الثانوية للبنين,,,0,,,,,,
created_stop_1653,Stop 1653,32.019832,36.007444,,مدرسة الرشيد الثانوية للبنين,,,0,,,,,,
created_stop_1654,Stop 1654,32.020687,36.0091,,شارع عبد القادر الحسيني,,,0,,,,,,
created_stop_1655,Stop 1655,32.020798,36.010884,,شارع عبد القادر الحسيني,,,0,,,,,,
created_stop_1656,Stop 1656,32.020372,36.012648,,شارع عبد القادر الحسيني,,,0,,,,,,
created_stop_1657,Stop 1657,32.020243,36.014429,,International Train,,,0,,,,,,
created_stop_1658,Stop 1658,32.021206,36.016005,,شارع علي بن أبي طالب,,,0,,,,,,
created_stop_1659,Stop 1659,32.023248,36.016293,,شارع علي بن أبي طالب,,,0,,,,,,
created_stop_1660,Stop 1660,32.025369,36.015749,,شارع علي بن أبي طالب,,,0,,,,,,
created_stop_1661,Stop 1661,32.027238,36.016403,,سوبر ماركت مكة,,,0,,,,,,
created_stop_1662,Stop 1662,32.027617,36.01815,,حي الرشيد,,,0,,,,,,
created_stop_1663,Stop 1663,32.027656,36.01995,,حي الرشيد,,,0,,,,,,
created_stop_1664,Stop 1664,32.027904,36.021737,,شارع الحسين بن علي,,,0,,,,,,
created_stop_1665,Stop 1665,32.028364,36.023498,,شارع الحسين بن علي,,,0,,,,,,
created_stop_1666,Stop 1666,32.028643,36.025269,,شارع الحسين بن علي,,,0,,,,,,
created_stop_1667,Stop 1667,32.028463,36.027063,,شارع الأمير جابر الصباح,,,0,,,,,,
created_stop_1668,Stop 1668,32.028303,36.028858,,تل المشتلة,,,0,,,,,,
created_stop_1669,Stop 1669,32.028207,36.030656,,تل المشتلة,,,0,,,,,,
created_stop_1670,Stop 1670,32.028154,36.032455,,شارع علار,,,0,,,,,,
created_stop_1671,Stop 1671,32.028069,36.034253,,شارع علار,,,0,,,,,,
created_stop_1672,Stop 1672,32.027921,36.036049,,شارع علار,,,0,,,,,,
created_stop_1673,Stop 1673,32.027908,36.037845,,شارع علار,,,0,,,,,,
created_stop_1674,Stop 1674,32.028268,36.039621,,مسجد امنة بنت وهب,,,0,,,,,,
created_stop_1675,Stop 1675,32.028804,36.041368,,حلويات النجمة. الجبل الشمالي,,,0,,,,,,
created_stop_1676,Stop 1676,32.029354,36.043112,,حلويات النجمة. الجبل الشمالي,,,0,,,,,,
created_stop_1677,Stop 1677,32.029905,36.044856,,مطعم على كيفك,,,0,,,,,,
created_stop_1678,Stop 1678,32.030273,36.046624,,مشفى الأمير فيصل,,,0,,,,,,
created_stop_1679,Stop 1679,32.030016,36.048399,,شارع الملك عبدالله الثاني بن الحسين,,,0,,,,,,
created_stop_1680,Stop 1680,32.029029,36.050006,,مركز أمن الرصيفة,,,0,,,,,,
created_stop_1681,Stop 1681,32.027827,36.051521,,vmedia,,,0,,,,,,
created_stop_1682,Stop 1682,32.02663,36.053038,,,,,0,,,,,,
created_stop_1683,Stop 1683,32.025813,36.054695,,,,,0,,,,,,
created_stop_1684,Stop 1684,32.025453,36.056471,,,,,0,,,,,,
created_stop_1685,Stop 1685,32.025116,36.05825,,,,,0,,,,,,
created_stop_1686,Stop 1686,32.023659,36.058716,,,,,0,,,,,,
created_stop_1687,Stop 1687,32.024616,36.059322,,,,,0,,,,,,
created_stop_1688,Stop 1688,32.027999,35.871556,,,,,0,,,,,,
created_stop_1689,Stop 1689,31.881813,35.934079,,,,,0,,,,,,
created_stop_1690,Stop 1690,31.880329,35.932978,,منطقة الملاحم الطيبة عمان,,,0,,,,,,
created_stop_1691,Stop 1691,31.87825,35.932343,,مسجد عبادة بن الصامت,,,0,,,,,,
created_stop_1692,Stop 1692,31.876166,35.931715,,,,,0,,,,,,
created_stop_1693,Stop 1693,31.874575,35.930834,,,,,0,,,,,,
created_stop_1694,Stop 1694,31.945954,35.931332,,,,,0,,,,,,
created_stop_1695,Stop 1695,31.943412,35.929107,,شارع الأمير الحسن,,,0,,,,,,
created_stop_1696,Stop 1696,31.883576,35.933944,,,,,0,,,,,,
created_stop_1697,Stop 1697,31.877346,35.929599,,,,,0,,,,,,
created_stop_1698,Stop 1698,31.879022,35.928426,,مسجد عمر المختار,,,0,,,,,,
created_stop_1699,Stop 1699,31.880718,35.927294,,مسجد عمر المختار,,,0,,,,,,
created_stop_1700,Stop 1700,31.881925,35.925794,,Juwaideh Community Center,,,0,,,,,,
created_stop_1701,Stop 1701,31.880893,35.92447,,Juwaideh Community Center,,,0,,,,,,
created_stop_1702,Stop 1702,31.881729,35.922818,,Juwaideh Community Center,,,0,,,,,,
created_stop_1703,Stop 1703,31.882231,35.92147,,شارع حمدان أبو سرحان,,,0,,,,,,
created_stop_1704,Stop 1704,31.880957,35.919996,,الاندلس,,,0,,,,,,
created_stop_1705,Stop 1705,31.880123,35.918343,,الاندلس,,,0,,,,,,
created_stop_1706,Stop 1706,31.87899,35.916838,,الاندلس,,,0,,,,,,
created_stop_1707,Stop 1707,31.877154,35.91583,,الاندلس,,,0,,,,,,
created_stop_1708,Stop 1708,31.875848,35.916192,,الاندلس,,,0,,,,,,
created_stop_1709,Stop 1709,31.875679,35.917971,,الاندلس,,,0,,,,,,
created_stop_1710,Stop 1710,31.875732,35.91977,,مهندس. رائد حسني محمود,,,0,,,,,,
created_stop_1711,Stop 1711,31.874084,35.920198,,مهندس. رائد حسني محمود,,,0,,,,,,
created_stop_1712,Stop 1712,31.87249,35.919663,,مهندس. رائد حسني محمود,,,0,,,,,,
created_stop_1713,Stop 1713,31.872524,35.917864,,مهندس. رائد حسني محمود,,,0,,,,,,
created_stop_1714,Stop 1714,31.871235,35.918193,,مهندس. رائد حسني محمود,,,0,,,,,,
created_stop_1715,Stop 1715,31.869459,35.91923,,مهندس. رائد حسني محمود,,,0,,,,,,
created_stop_1716,Stop 1716,31.869026,35.917565,,وادي الحنو,,,0,,,,,,
created_stop_1717,Stop 1717,31.868836,35.915777,,وادي الحنو,,,0,,,,,,
created_stop_1718,Stop 1718,31.868243,35.914043,,وادي الحنو,,,0,,,,,,
created_stop_1719,Stop 1719,31.867962,35.91226,,وادي الحنو,,,0,,,,,,
created_stop_1720,Stop 1720,31.867762,35.910468,,شارع زيد بن خالد,,,0,,,,,,
created_stop_1721,Stop 1721,31.867678,35.908673,,شارع زيد بن خالد,,,0,,,,,,
created_stop_1722,Stop 1722,31.867906,35.906883,,شارع زيد بن خالد,,,0,,,,,,
created_stop_1723,Stop 1723,31.868021,35.905086,,شارع زيد بن خالد,,,0,,,,,,
created_stop_1724,Stop 1724,31.867942,35.903288,,شارع زيد بن خالد,,,0,,,,,,
created_stop_1725,Stop 1725,31.868206,35.901503,,شارع زيد بن خالد,,,0,,,,,,
created_stop_1726,Stop 1726,31.868443,35.899713,,شارع زيد بن خالد,,,0,,,,,,
created_stop_1727,Stop 1727,31.868472,35.897916,,شارع زيد بن خالد,,,0,,,,,,
created_stop_1728,Stop 1728,31.868369,35.896118,,شارع زيد بن خالد,,,0,,,,,,
created_stop_1729,Stop 1729,31.868242,35.894321,,شارع زيد بن خالد,,,0,,,,,,
created_stop_1730,Stop 1730,31.868134,35.892524,,شارع زيد بن خالد,,,0,,,,,,
created_stop_1731,Stop 1731,31.869361,35.920818,,مهندس. رائد حسني محمود,,,0,,,,,,
created_stop_1732,Stop 1732,31.869581,35.922606,,مهندس. رائد حسني محمود,,,0,,,,,,
created_stop_1733,Stop 1733,31.870285,35.924311,,الطيبة وخريبة السوق,,,0,,,,,,
created_stop_1734,Stop 1734,31.870386,35.926092,,شارع زيد بن خالد,,,0,,,,,,
created_stop_1735,Stop 1735,31.870128,35.927879,,,,,0,,,,,,
created_stop_1736,Stop 1736,31.883989,35.935851,,,,,0,,,,,,
created_stop_1737,Stop 1737,32.023881,35.841006,,,,,0,,,,,,
created_stop_1738,Stop 1738,32.0254,35.839703,,شارع محمد نور جنكات,,,0,,,,,,
created_stop_1739,Stop 1739,32.027298,35.838827,,,,,0,,,,,,
created_stop_1740,Stop 1740,32.028136,35.837182,,,,,0,,,,,,
created_stop_1741,Stop 1741,32.028655,35.835432,,,,,0,,,,,,
created_stop_1742,Stop 1742,32.029047,35.833665,,,,,0,,,,,,
created_stop_1743,Stop 1743,32.029149,35.831868,,,,,0,,,,,,
created_stop_1744,Stop 1744,32.029348,35.830079,,شارع موسى عزمي,,,0,,,,,,
created_stop_1745,Stop 1745,32.029102,35.828292,,شارع السلط,,,0,,,,,,
created_stop_1746,Stop 1746,32.028585,35.826546,,شارع الثورة العربية الكبرى,,,0,,,,,,
created_stop_1747,Stop 1747,32.028334,35.824779,,شارع الأميرة تسنيم بنت غازي,,,0,,,,,,
created_stop_1748,Stop 1748,32.027465,35.823123,,شارع الأميرة تسنيم بنت غازي,,,0,,,,,,
created_stop_1749,Stop 1749,32.026539,35.821494,,شارع الأميرة تسنيم بنت غازي,,,0,,,,,,
created_stop_1750,Stop 1750,32.025149,35.820111,,شارع الأميرة تسنيم بنت غازي,,,0,,,,,,
created_stop_1751,Stop 1751,32.023644,35.818875,,شارع الأميرة تسنيم بنت غازي,,,0,,,,,,
created_stop_1752,Stop 1752,32.022352,35.817466,,شارع الأميرة تسنيم بنت غازي,,,0,,,,,,
created_stop_1753,Stop 1753,32.021046,35.816078,,الحمر,,,0,,,,,,
created_stop_1754,Stop 1754,32.019826,35.814669,,الحمر,,,0,,,,,,
created_stop_1755,Stop 1755,32.019187,35.812945,,الحمر,,,0,,,,,,
created_stop_1756,Stop 1756,32.018269,35.811308,,شارع الأميرة تسنيم بنت غازي,,,0,,,,,,
created_stop_1757,Stop 1757,32.017272,35.809704,,شارع الأميرة تسنيم بنت غازي,,,0,,,,,,
created_stop_1758,Stop 1758,32.015382,35.808777,,شارع الأميرة تسنيم بنت غازي,,,0,,,,,,
created_stop_1759,Stop 1759,32.014083,35.807395,,شارع الأميرة تسنيم بنت غازي,,,0,,,,,,
created_stop_1760,Stop 1760,32.014183,35.805604,,شارع الأميرة تسنيم بنت غازي,,,0,,,,,,
created_stop_1761,Stop 1761,32.014536,35.803828,,خربة المقبلة,,,0,,,,,,
created_stop_1762,Stop 1762,32.013809,35.802269,,خربة المقبلة,,,0,,,,,,
created_stop_1763,Stop 1763,32.012715,35.800814,,خربة المقبلة,,,0,,,,,,
created_stop_1764,Stop 1764,32.01235,35.799038,,خربة المقبلة,,,0,,,,,,
created_stop_1765,Stop 1765,32.011751,35.797323,,شارع الأميرة تسنيم بنت غازي,,,0,,,,,,
created_stop_1766,Stop 1766,32.01031,35.796038,,شارع الأميرة تسنيم بنت غازي,,,0,,,,,,
created_stop_1767,Stop 1767,32.010036,35.794339,,شارع الأميرة تسنيم بنت غازي,,,0,,,,,,
created_stop_1768,Stop 1768,32.009938,35.792634,,شارع الأميرة تسنيم بنت غازي,,,0,,,,,,
created_stop_1769,Stop 1769,32.009005,35.791028,,شارع الأميرة تسنيم بنت غازي,,,0,,,,,,
created_stop_1770,Stop 1770,32.008672,35.789284,,شارع الأميرة تسنيم بنت غازي,,,0,,,,,,
created_stop_1771,Stop 1771,32.007229,35.788029,,,,,0,,,,,,
created_stop_1772,Stop 1772,32.005505,35.787052,,Total,,,0,,,,,,
created_stop_1773,Stop 1773,32.004513,35.785464,,شارع الأميرة تسنيم بنت غازي,,,0,,,,,,
created_stop_1774,Stop 1774,32.003671,35.783823,,شارع الملك عبدالله الثاني,,,0,,,,,,
created_stop_1775,Stop 1775,32.002345,35.782382,,شارع وصفي التل,,,0,,,,,,
created_stop_1776,Stop 1776,32.001058,35.780916,,شارع الملك عبدالله الثاني,,,0,,,,,,
created_stop_1777,Stop 1777,32.001074,35.779182,,شارع الدستور,,,0,,,,,,
created_stop_1778,Stop 1778,32.001795,35.777495,,شارع وصفي التل,,,0,,,,,,
created_stop_1779,Stop 1779,32.002185,35.775726,,بلدية الفحيص / مبنى الحركة,,,0,,,,,,
created_stop_1780,Stop 1780,32.002001,35.773936,,العلالي,,,0,,,,,,
created_stop_1781,Stop 1781,32.001465,35.772211,,العلالي,,,0,,,,,,
created_stop_1782,Stop 1782,32.000038,35.770841,,شارع الملك عبدالله الثاني,,,0,,,,,,
created_stop_1783,Stop 1783,31.998056,35.770136,,شارع الملك عبدالله الثاني,,,0,,,,,,
created_stop_1784,Stop 1784,31.99585,35.770158,,Mahes and Fuhais Sub-District,,,0,,,,,,
created_stop_1785,Stop 1785,31.99393,35.770782,,شارع الملك عبدالله الثاني,,,0,,,,,,
created_stop_1786,Stop 1786,31.991756,35.770539,,شارع الملك عبدالله الثاني,,,0,,,,,,
created_stop_1787,Stop 1787,31.989583,35.770269,,شارع الملك عبدالله الثاني,,,0,,,,,,
created_stop_1788,Stop 1788,31.987489,35.769935,,ماحص,,,0,,,,,,
created_stop_1789,Stop 1789,31.985538,35.769101,,ماحص,,,0,,,,,,
created_stop_1790,Stop 1790,31.983713,35.768378,,ماحص,,,0,,,,,,
created_stop_1791,Stop 1791,31.981649,35.768654,,ماحص,,,0,,,,,,
created_stop_1792,Stop 1792,31.979503,35.768225,,ماحص,,,0,,,,,,
created_stop_1793,Stop 1793,32.02754,35.834101,,,,,0,,,,,,
created_stop_1794,Stop 1794,32.026781,35.835787,,,,,0,,,,,,
created_stop_1795,Stop 1795,32.026031,35.837477,,,,,0,,,,,,
created_stop_1796,Stop 1796,32.024417,35.838665,,,,,0,,,,,,
created_stop_1797,Stop 1797,32.023116,35.840075,,,,,0,,,,,,
created_stop_1798,Stop 1798,32.021555,35.841354,,شارع الأميرة هيا بنت الحسين,,,0,,,,,,
created_stop_1799,Stop 1799,32.021216,35.842936,,حديقة صويلح,,,0,,,,,,
created_stop_1800,Stop 1800,31.938948,35.92023,,شارع عبد القادر حمزة,,,0,,,,,,
created_stop_1801,Stop 1801,31.937784,35.918699,,شارع يوسف الجندي,,,0,,,,,,
created_stop_1802,Stop 1802,31.936642,35.917156,,شارع حليمة السعدية,,,0,,,,,,
created_stop_1803,Stop 1803,31.935324,35.915707,,شارع عبد الوهاب الدمشقي,,,0,,,,,,
created_stop_1804,Stop 1804,31.933996,35.914265,,شارع الدستور,,,0,,,,,,
created_stop_1805,Stop 1805,31.93272,35.914328,,كازية نزال,,,0,,,,,,
created_stop_1806,Stop 1806,31.936546,35.914176,,الأخضر,,,0,,,,,,
created_stop_1807,Stop 1807,31.938436,35.913945,,شارع الميزان,,,0,,,,,,
created_stop_1808,Stop 1808,31.939998,35.915225,,شارع محمد شفيق غربال,,,0,,,,,,
created_stop_1809,Stop 1809,31.940715,35.916668,,شارع شكري القوتلي,,,0,,,,,,
created_stop_1810,Stop 1810,31.942277,35.917884,,شارع جعفر الحسيني,,,0,,,,,,
created_stop_1811,Stop 1811,31.943113,35.916233,,شارع سيف الدولة الحمداني,,,0,,,,,,
created_stop_1812,Stop 1812,31.944608,35.915364,,شارع عبدالله بهاء الدين,,,0,,,,,,
created_stop_1813,Stop 1813,31.945463,35.913704,,شارع عطارد,,,0,,,,,,
created_stop_1814,Stop 1814,31.944334,35.912347,,شارع عبدالله بهاء الدين,,,0,,,,,,
created_stop_1815,Stop 1815,31.942413,35.911575,,شارع حمد بن جازي ممر 1,,,0,,,,,,
created_stop_1816,Stop 1816,31.942025,35.910183,,شارع حمد بن جازي,,,0,,,,,,
created_stop_1817,Stop 1817,31.942852,35.909092,,شارع محمود فليحان,,,0,,,,,,
created_stop_1818,Stop 1818,31.81159,35.909553,,طريق الخدمة الغربي,,,0,,,,,,
created_stop_1819,Stop 1819,31.809888,35.9107,,شارع مطار الملكة علياء,,,0,,,,,,
created_stop_1820,Stop 1820,31.808118,35.911788,,شارع مطار الملكة علياء,,,0,,,,,,
created_stop_1821,Stop 1821,31.806352,35.91288,,شارع مطار الملكة علياء,,,0,,,,,,
created_stop_1822,Stop 1822,31.80461,35.913998,,طريق الخدمة الغربي,,,0,,,,,,
created_stop_1823,Stop 1823,31.802868,35.915116,,شارع مطار الملكة علياء,,,0,,,,,,
created_stop_1824,Stop 1824,31.801132,35.916239,,شارع مطار الملكة علياء,,,0,,,,,,
created_stop_1825,Stop 1825,31.799406,35.917373,,شارع مطار الملكة علياء,,,0,,,,,,
created_stop_1826,Stop 1826,31.79768,35.918507,,شارع مطار الملكة علياء,,,0,,,,,,
created_stop_1827,Stop 1827,31.795954,35.919641,,شارع مطار الملكة علياء,,,0,,,,,,
created_stop_1828,Stop 1828,31.794236,35.920783,,شارع مطار الملكة علياء,,,0,,,,,,
created_stop_1829,Stop 1829,31.792521,35.921927,,شارع مطار الملكة علياء,,,0,,,,,,
created_stop_1830,Stop 1830,31.790805,35.923071,,شارع مطار الملكة علياء,,,0,,,,,,
created_stop_1831,Stop 1831,31.789089,35.924215,,مسجد جامعة الإسراء,,,0,,,,,,
created_stop_1832,Stop 1832,31.787656,35.925837,,شارع مطار الملكة علياء,,,0,,,,,,
created_stop_1833,Stop 1833,31.785656,35.926502,,شارع طلال مثقال الفايز,,,0,,,,,,
created_stop_1834,Stop 1834,31.783881,35.927585,,شارع مطار الملكة علياء,,,0,,,,,,
created_stop_1835,Stop 1835,31.782105,35.928668,,شارع مطار الملكة علياء,,,0,,,,,,
created_stop_1836,Stop 1836,31.78034,35.929762,,شارع مطار الملكة علياء,,,0,,,,,,
created_stop_1837,Stop 1837,31.778556,35.93083,,شارع مطار الملكة علياء,,,0,,,,,,
created_stop_1838,Stop 1838,31.776616,35.931709,,شارع مطار الملكة علياء,,,0,,,,,,
created_stop_1839,Stop 1839,31.774728,35.932658,,شارع مطار الملكة علياء,,,0,,,,,,
created_stop_1840,Stop 1840,31.772854,35.933625,,شارع مطار الملكة علياء,,,0,,,,,,
created_stop_1841,Stop 1841,31.770979,35.934593,,شارع مطار الملكة علياء,,,0,,,,,,
created_stop_1842,Stop 1842,31.769105,35.93556,,شارع مطار الملكة علياء,,,0,,,,,,
created_stop_1843,Stop 1843,31.767231,35.936528,,شارع مطار الملكة علياء,,,0,,,,,,
created_stop_1844,Stop 1844,31.765319,35.937446,,شارع مطار الملكة علياء,,,0,,,,,,
created_stop_1845,Stop 1845,31.763405,35.938362,,شارع مطار الملكة علياء,,,0,,,,,,
created_stop_1846,Stop 1846,31.761492,35.939279,,كازية المناصير,,,0,,,,,,
created_stop_1847,Stop 1847,31.759498,35.940069,,كازية المناصير,,,0,,,,,,
created_stop_1848,Stop 1848,31.757398,35.940651,,طريق الخدمة الغربي,,,0,,,,,,
created_stop_1849,Stop 1849,31.755243,35.941077,,طريق الخدمة الغربي,,,0,,,,,,
created_stop_1850,Stop 1850,31.753045,35.94134,,شارع مطار الملكة علياء,,,0,,,,,,
created_stop_1851,Stop 1851,31.750831,35.941506,,معرض المنتجات الأمريكية,,,0,,,,,,
created_stop_1852,Stop 1852,31.748617,35.941671,,شارع مطار الملكة علياء,,,0,,,,,,
created_stop_1853,Stop 1853,31.746395,35.941723,,Baby Cord,,,0,,,,,,
created_stop_1854,Stop 1854,31.744173,35.941775,,شارع مطار الملكة علياء,,,0,,,,,,
created_stop_1855,Stop 1855,31.741952,35.941851,,Auto Nation Rental Car,,,0,,,,,,
created_stop_1856,Stop 1856,31.739814,35.94228,,شارع مطار الملكة علياء,,,0,,,,,,
created_stop_1857,Stop 1857,31.737723,35.942889,,,,,0,,,,,,
created_stop_1858,Stop 1858,31.735623,35.943481,,شارع مطار الملكة علياء,,,0,,,,,,
created_stop_1859,Stop 1859,31.733523,35.944073,,شارع مطار الملكة علياء,,,0,,,,,,
created_stop_1860,Stop 1860,31.731431,35.94468,,شارع مطار الملكة علياء,,,0,,,,,,
created_stop_1861,Stop 1861,31.729359,35.945333,,شارع مطار الملكة علياء,,,0,,,,,,
created_stop_1862,Stop 1862,31.727251,35.945905,,طريق الخدمة الشرقي,,,0,,,,,,
created_stop_1863,Stop 1863,31.725152,35.946497,,طريق خدمة الغرب,,,0,,,,,,
created_stop_1864,Stop 1864,31.723059,35.947104,,شارع مطار الملكة علياء,,,0,,,,,,
created_stop_1865,Stop 1865,31.720961,35.9477,,شارع مطار الملكة علياء,,,0,,,,,,
created_stop_1866,Stop 1866,31.718867,35.948305,,شارع مطار الملكة علياء,,,0,,,,,,
created_stop_1867,Stop 1867,31.716779,35.948922,,شارع مطار الملكة علياء,,,0,,,,,,
created_stop_1868,Stop 1868,31.714688,35.949535,,,,,0,,,,,,
created_stop_1869,Stop 1869,31.711805,35.950232,,,,,0,,,,,,
created_stop_1870,Stop 1870,31.710496,35.950735,,,,,0,,,,,,
created_stop_1871,Stop 1871,31.708597,35.951692,,شارع مطار الملكة علياء,,,0,,,,,,
created_stop_1872,Stop 1872,31.706303,35.951933,,Bank of Jordan,,,0,,,,,,
created_stop_1873,Stop 1873,31.705032,35.952447,,Bank of Jordan,,,0,,,,,,
created_stop_1874,Stop 1874,31.940527,35.922309,,شارع حليمة السعدية,,,0,,,,,,
created_stop_1875,Stop 1875,31.935632,35.918294,,شارع عيسى القيسي,,,0,,,,,,
created_stop_1876,Stop 1876,31.935588,35.919802,,شارع عيد البلاعيس,,,0,,,,,,
created_stop_1877,Stop 1877,31.934468,35.921007,,شارع باب الساهرة,,,0,,,,,,
created_stop_1878,Stop 1878,31.932657,35.919992,,شارع بادية,,,0,,,,,,
created_stop_1879,Stop 1879,31.930771,35.919045,,شارع الران,,,0,,,,,,
created_stop_1880,Stop 1880,31.931961,35.917756,,شارع الران,,,0,,,,,,
created_stop_1881,Stop 1881,31.931574,35.916276,,الذراع,,,0,,,,,,
created_stop_1882,Stop 1882,31.930404,35.915502,,شارع غالب كفاوين,,,0,,,,,,
created_stop_1883,Stop 1883,31.929767,35.913945,,وادي أم صويوينة,,,0,,,,,,
created_stop_1884,Stop 1884,31.929827,35.912214,,عمارة 95,,,0,,,,,,
created_stop_1885,Stop 1885,31.930832,35.910812,,,,,0,,,,,,
created_stop_1886,Stop 1886,31.932115,35.912282,,محطة جوبترول,,,0,,,,,,
created_stop_1887,Stop 1887,32.031023,35.863016,,,,,0,,,,,,
created_stop_1888,Stop 1888,32.033194,35.863341,,شارع أبو نصير,,,0,,,,,,
created_stop_1889,Stop 1889,32.035211,35.864094,,Al Douri,,,0,,,,,,
created_stop_1890,Stop 1890,32.037158,35.864959,,دوار الأميرة بسمة,,,0,,,,,,
created_stop_1891,Stop 1891,32.039086,35.865799,,شارع أبو نصير,,,0,,,,,,
created_stop_1892,Stop 1892,32.040201,35.867345,,شارع أبو العلاء الهمذاني,,,0,,,,,,
created_stop_1893,Stop 1893,32.041743,35.868624,,شارع أبو نصير,,,0,,,,,,
created_stop_1894,Stop 1894,32.043676,35.869493,,شارع أبو نصير,,,0,,,,,,
created_stop_1895,Stop 1895,32.045504,35.870475,,شارع أبو نصير,,,0,,,,,,
created_stop_1896,Stop 1896,32.047012,35.871794,,شارع أبو نصير,,,0,,,,,,
created_stop_1897,Stop 1897,32.047929,35.872697,,شارع أبو نصير,,,0,,,,,,
created_stop_1898,Stop 1898,32.049278,35.874865,,شارع أبو نصير,,,0,,,,,,
created_stop_1899,Stop 1899,32.050218,35.876496,,شارع أبو نصير,,,0,,,,,,
created_stop_1900,Stop 1900,32.051428,35.878333,,شارع أبو نصير,,,0,,,,,,
created_stop_1901,Stop 1901,32.051565,35.879897,,,,,0,,,,,,
created_stop_1902,Stop 1902,32.051605,35.882205,,شارع أبو نصير,,,0,,,,,,
created_stop_1903,Stop 1903,32.050846,35.88341,,شارع أبو نصير,,,0,,,,,,
created_stop_1904,Stop 1904,32.049799,35.884909,,شارع سويد بن زيد,,,0,,,,,,
created_stop_1905,Stop 1905,32.049219,35.886637,,,,,0,,,,,,
created_stop_1906,Stop 1906,32.04852,35.888338,,شارع أحمد الحامد السيوف,,,0,,,,,,
created_stop_1907,Stop 1907,32.048119,35.890108,,جوبترول,,,0,,,,,,
created_stop_1908,Stop 1908,32.047643,35.891865,,شارع سمير أبو رصعة,,,0,,,,,,
created_stop_1909,Stop 1909,32.046599,35.893445,,,,,0,,,,,,
created_stop_1910,Stop 1910,32.045685,35.895639,,شارع الأصالة,,,0,,,,,,
created_stop_1911,Stop 1911,32.044927,35.896778,,شارع أحمد العلي الرحامنة,,,0,,,,,,
created_stop_1912,Stop 1912,32.044158,35.898467,,شارع العرب,,,0,,,,,,
created_stop_1913,Stop 1913,32.043551,35.900756,,مسجد الجامعة التطبيقية,,,0,,,,,,
created_stop_1914,Stop 1914,32.042622,35.901816,,شارع العرب,,,0,,,,,,
created_stop_1915,Stop 1915,32.041779,35.903488,,شارع العرب,,,0,,,,,,
created_stop_1916,Stop 1916,32.041013,35.905171,,شارع العرب,,,0,,,,,,
created_stop_1917,Stop 1917,32.040803,35.906961,,شارع العرب,,,0,,,,,,
created_stop_1918,Stop 1918,32.039994,35.910492,,شارع العرب,,,0,,,,,,
created_stop_1919,Stop 1919,32.040697,35.912173,,شارع العرب,,,0,,,,,,
created_stop_1920,Stop 1920,32.041978,35.913644,,شارع العرب,,,0,,,,,,
created_stop_1921,Stop 1921,32.043303,35.915086,,شارع رفعت شموط,,,0,,,,,,
created_stop_1922,Stop 1922,32.044362,35.916662,,شارع رفعت شموط,,,0,,,,,,
created_stop_1923,Stop 1923,32.0449,35.918388,,شارع رفعت شموط,,,0,,,,,,
created_stop_1924,Stop 1924,32.045038,35.920184,,شارع رفعت شموط,,,0,,,,,,
created_stop_1925,Stop 1925,32.045156,35.921981,,شارع رفعت شموط,,,0,,,,,,
created_stop_1926,Stop 1926,32.045348,35.923772,,حروف,,,0,,,,,,
created_stop_1927,Stop 1927,32.045949,35.925502,,حروف,,,0,,,,,,
created_stop_1928,Stop 1928,32.046515,35.927242,,شارع عبدالله بن أنيس,,,0,,,,,,
created_stop_1929,Stop 1929,32.047045,35.928989,,شارع عبدالله بن أنيس,,,0,,,,,,
created_stop_1930,Stop 1930,32.047815,35.930677,,شارع المغفرة,,,0,,,,,,
created_stop_1931,Stop 1931,32.047459,35.932259,,شارع المغفرة,,,0,,,,,,
created_stop_1932,Stop 1932,32.045972,35.93359,,شارع الفاتح,,,0,,,,,,
created_stop_1933,Stop 1933,31.993174,36.021273,,Al-Balqa Applied University - BAU كلية الهندسة التكنلوجية البولتكنك,,,0,,,,,,
created_stop_1934,Stop 1934,31.991058,36.021695,,مدرسة اليوبيل الذهبي الاساسية المختلطة,,,0,,,,,,
created_stop_1935,Stop 1935,31.989169,36.020797,,مخبز عين الحلوة,,,0,,,,,,
created_stop_1936,Stop 1936,31.986984,36.022028,,مركز ابن القيم القراني,,,0,,,,,,
created_stop_1937,Stop 1937,31.985163,36.023063,,مسجد الفرقان,,,0,,,,,,
created_stop_1938,Stop 1938,31.983555,36.024244,,مسجد الفرقان,,,0,,,,,,
created_stop_1939,Stop 1939,31.981728,36.024076,,روضة مواكب النور,,,0,,,,,,
created_stop_1940,Stop 1940,31.980275,36.022725,,سكن عيش كريم,,,0,,,,,,
created_stop_1941,Stop 1941,31.983157,36.026037,,روضة مواكب النور,,,0,,,,,,
created_stop_1942,Stop 1942,31.982995,36.027828,,روضة مواكب النور,,,0,,,,,,
created_stop_1943,Stop 1943,31.983377,36.0296,,روضة مواكب النور,,,0,,,,,,
created_stop_1944,Stop 1944,31.983711,36.031379,,مسجد الفرقان,,,0,,,,,,
created_stop_1945,Stop 1945,31.983744,36.033164,,مسجد الفرقان,,,0,,,,,,
created_stop_1946,Stop 1946,31.983391,36.03494,,روضة مواكب النور,,,0,,,,,,
created_stop_1947,Stop 1947,31.982805,36.03652,,,,,0,,,,,,
created_stop_1948,Stop 1948,31.98148,36.035076,,مدرسة الفوز النموذجية الخاصة,,,0,,,,,,
created_stop_1949,Stop 1949,31.980266,36.033578,,مدرسة الفوز النموذجية الخاصة,,,0,,,,,,
created_stop_1950,Stop 1950,31.984378,36.038583,,,,,0,,,,,,
created_stop_1951,Stop 1951,31.985504,36.024919,,مسجد الفرقان,,,0,,,,,,
created_stop_1952,Stop 1952,31.987705,36.025185,,مدرسة انيسة بنت كعب الثانوية الشاملة للبنات,,,0,,,,,,
created_stop_1953,Stop 1953,31.989892,36.025519,,روضة شعلة الاسلام الخاصة,,,0,,,,,,
created_stop_1954,Stop 1954,31.992039,36.025443,,روضة شعلة الاسلام الخاصة,,,0,,,,,,
created_stop_1955,Stop 1955,31.992607,36.024152,,مسجد سيدنا عمر بن الخطاب,,,0,,,,,,
created_stop_1956,Stop 1956,31.990761,36.023175,,مدرسة براعم التطوير النموذجية,,,0,,,,,,
created_stop_1957,Stop 1957,31.989125,36.022011,,مدرسة براعم التطوير النموذجية,,,0,,,,,,
created_stop_1958,Stop 1958,31.99437,36.022569,,شارع الحزام الدائري,,,0,,,,,,
created_stop_1959,Stop 1959,31.994561,36.02436,,محطة محروقات توتال,,,0,,,,,,
created_stop_1960,Stop 1960,31.997203,36.024828,,أوتوستراد عمان - الزرقاء,,,0,,,,,,
created_stop_1961,Stop 1961,31.99109,35.944361,,صيدلية بتونيا,,,0,,,,,,
created_stop_1962,Stop 1962,31.993015,35.94526,,,,,0,,,,,,
created_stop_1963,Stop 1963,31.995032,35.945895,,,,,0,,,,,,
created_stop_1964,Stop 1964,31.997253,35.94584,,,,,0,,,,,,
created_stop_1965,Stop 1965,31.998973,35.944773,,,,,0,,,,,,
created_stop_1966,Stop 1966,32.000546,35.943886,,شارع ضيف الله الهبارنة,,,0,,,,,,
created_stop_1967,Stop 1967,32.000943,35.94559,,شارع إسماعيل زكريا,,,0,,,,,,
created_stop_1968,Stop 1968,32.000473,35.947348,,,,,0,,,,,,
created_stop_1969,Stop 1969,32.001287,35.948453,,,,,0,,,,,,
created_stop_1970,Stop 1970,32.002082,35.950154,,شارع عبدالخالق يغمور,,,0,,,,,,
created_stop_1971,Stop 1971,32.001235,35.951814,,,,,0,,,,,,
created_stop_1972,Stop 1972,32.000115,35.953103,,شارع البصيرة,,,0,,,,,,
created_stop_1973,Stop 1973,32.000577,35.954863,,شارع البصيرة,,,0,,,,,,
created_stop_1974,Stop 1974,32.001232,35.956582,,شارع النهضة,,,0,,,,,,
created_stop_1975,Stop 1975,32.001866,35.958305,,Yasmeen Supermarket,,,0,,,,,,
created_stop_1976,Stop 1976,32.002201,35.960081,,شارع عسلين,,,0,,,,,,
created_stop_1977,Stop 1977,32.002252,35.96188,,,,,0,,,,,,
created_stop_1978,Stop 1978,32.002255,35.96368,,,,,0,,,,,,
created_stop_1979,Stop 1979,32.002223,35.964685,,,,,0,,,,,,
created_stop_1980,Stop 1980,32.001942,35.967261,,شارع كمال الدين الفارسي,,,0,,,,,,
created_stop_1981,Stop 1981,32.001142,35.968979,,شارع بيت الرضوان,,,0,,,,,,
created_stop_1982,Stop 1982,32.00172,35.970854,,شارع فوزي الهدبان,,,0,,,,,,
created_stop_1983,Stop 1983,32.001665,35.972653,,شارع فوزي الهدبان,,,0,,,,,,
created_stop_1984,Stop 1984,32.000457,35.972976,,شارع الدربندي,,,0,,,,,,
created_stop_1985,Stop 1985,31.999954,35.974483,,شارع الدربندي,,,0,,,,,,
created_stop_1986,Stop 1986,31.999448,35.976225,,شارع الدربندي,,,0,,,,,,
created_stop_1987,Stop 1987,31.99923,35.978004,,شارع الامير فيصل بن الحسين,,,0,,,,,,
created_stop_1988,Stop 1988,31.929811,35.909619,,,,,0,,,,,,
created_stop_1989,Stop 1989,31.928556,35.908134,,شارع الدستور,,,0,,,,,,
created_stop_1990,Stop 1990,31.927483,35.906558,,,,,0,,,,,,
created_stop_1991,Stop 1991,31.926405,35.904987,,شارع عبد الله مخلص,,,0,,,,,,
created_stop_1992,Stop 1992,31.925067,35.90355,,,,,0,,,,,,
created_stop_1993,Stop 1993,31.924392,35.901966,,شارع عبد الرحمن الناصر,,,0,,,,,,
created_stop_1994,Stop 1994,31.925474,35.900394,,شارع عائشة بنت أبي بكر,,,0,,,,,,
created_stop_1995,Stop 1995,31.925031,35.898918,,,,,0,,,,,,
created_stop_1996,Stop 1996,31.923563,35.897567,,شارع العباس بن الأحنف,,,0,,,,,,
created_stop_1997,Stop 1997,31.92207,35.896234,,,,,0,,,,,,
created_stop_1998,Stop 1998,31.920565,35.894912,,,,,0,,,,,,
created_stop_1999,Stop 1999,31.919244,35.893582,,,,,0,,,,,,
created_stop_2000,Stop 2000,31.918426,35.892066,,شارع حسين أحمد العرموطي,,,0,,,,,,
created_stop_2001,Stop 2001,31.918893,35.890306,,شارع وادي الزناتي,,,0,,,,,,
created_stop_2002,Stop 2002,31.919271,35.888719,,شارع حسين أحمد العرموطي,,,0,,,,,,
created_stop_2003,Stop 2003,31.922922,35.903747,,شارع محمد فريد أبو حديد,,,0,,,,,,
created_stop_2004,Stop 2004,32.052532,35.876863,,شارع الكرامة,,,0,,,,,,
created_stop_2005,Stop 2005,32.054095,35.874669,,شارع محمد القرطبي,,,0,,,,,,
created_stop_2006,Stop 2006,32.055657,35.873613,,شارع محمد سليم الرشدان,,,0,,,,,,
created_stop_2007,Stop 2007,32.057897,35.874896,,,,,0,,,,,,
created_stop_2008,Stop 2008,32.059154,35.876756,,شارع الكرامة,,,0,,,,,,
created_stop_2009,Stop 2009,32.0604,35.877758,,شارع الكرامة,,,0,,,,,,
created_stop_2010,Stop 2010,32.061961,35.878931,,,,,0,,,,,,
created_stop_2011,Stop 2011,32.062491,35.880678,,Al Neel,,,0,,,,,,
created_stop_2012,Stop 2012,32.062525,35.882474,,,,,0,,,,,,
created_stop_2013,Stop 2013,32.062494,35.884274,,شارع بلاط الشهداء,,,0,,,,,,
created_stop_2014,Stop 2014,32.060696,35.88442,,شارع بلاط الشهداء,,,0,,,,,,
created_stop_2015,Stop 2015,32.058492,35.884641,,شارع بلاط الشهداء,,,0,,,,,,
created_stop_2016,Stop 2016,32.056229,35.884804,,شارع كمال الجيوسي,,,0,,,,,,
created_stop_2017,Stop 2017,32.054313,35.88419,,شارع بلاط الشهداء,,,0,,,,,,
created_stop_2018,Stop 2018,32.053005,35.882485,,Abu Nuseir Health Center,,,0,,,,,,
created_stop_2019,Stop 2019,31.906378,35.884915,,شارع القدس,,,0,,,,,,
created_stop_2020,Stop 2020,31.905701,35.883201,,,,,0,,,,,,
created_stop_2021,Stop 2021,31.90491,35.880915,,شارع القدس,,,0,,,,,,
created_stop_2022,Stop 2022,31.904346,35.879773,,شارع القدس,,,0,,,,,,
created_stop_2023,Stop 2023,31.903668,35.878059,,شارع القدس,,,0,,,,,,
created_stop_2024,Stop 2024,31.902989,35.876345,,Public Security Directorate HQ مديرية الأمن العام,,,0,,,,,,
created_stop_2025,Stop 2025,31.902309,35.874631,,شارع القدس,,,0,,,,,,
created_stop_2026,Stop 2026,31.901629,35.872918,,روابي البنيات,,,0,,,,,,
created_stop_2027,Stop 2027,31.90095,35.871204,,شارع القدس,,,0,,,,,,
created_stop_2028,Stop 2028,31.898105,35.862643,,شارع نصري نجيب السعود,,,0,,,,,,
created_stop_2029,Stop 2029,31.898164,35.86085,,انس ابو غلوس للسيراميك والبورسلان,,,0,,,,,,
created_stop_2030,Stop 2030,31.897777,35.859078,,شارع نجيب ميخائيل الدبابنة,,,0,,,,,,
created_stop_2031,Stop 2031,31.897234,35.857333,,,,,0,,,,,,
created_stop_2032,Stop 2032,31.896687,35.855589,,شارع القدس,,,0,,,,,,
created_stop_2033,Stop 2033,31.895932,35.8539,,,,,0,,,,,,
created_stop_2034,Stop 2034,31.894618,35.852465,,,,,0,,,,,,
created_stop_2035,Stop 2035,31.893576,35.851668,,,,,0,,,,,,
created_stop_2036,Stop 2036,31.983975,35.895782,,مطعم شلالات أبو زاد,,,0,,,,,,
created_stop_2037,Stop 2037,31.982289,35.893941,,شارع الشريف ناصر بن جميل,,,0,,,,,,
created_stop_2038,Stop 2038,31.983085,35.893108,,بن العميد,,,0,,,,,,
created_stop_2039,Stop 2039,31.984929,35.897284,,شارع الشهيد,,,0,,,,,,
created_stop_2040,Stop 2040,31.955005,35.943785,,Royal Court South Entrance,,,0,,,,,,
created_stop_2041,Stop 2041,31.955537,35.942107,,شارع أبو العلاء المعري,,,0,,,,,,
created_stop_2042,Stop 2042,31.955491,35.940378,,شارع الأردن,,,0,,,,,,
created_stop_2043,Stop 2043,31.955711,35.938611,,شارع الأردن,,,0,,,,,,
created_stop_2044,Stop 2044,31.955194,35.936861,,شارع الملك علي بن الحسين,,,0,,,,,,
created_stop_2045,Stop 2045,31.955883,35.935269,,,,,0,,,,,,
created_stop_2046,Stop 2046,31.956788,35.933651,,Amman: a view towards the north,,,0,,,,,,
created_stop_2047,Stop 2047,31.958164,35.932504,,شارع سعيد الدرة,,,0,,,,,,
created_stop_2048,Stop 2048,31.959608,35.93155,,وادي الحدادة,,,0,,,,,,
created_stop_2049,Stop 2049,31.961614,35.926382,,شارع المهلب بن أبي صفرة,,,0,,,,,,
created_stop_2050,Stop 2050,31.962461,35.924718,,,,,0,,,,,,
created_stop_2051,Stop 2051,31.963643,35.923222,,شارع خالد بن الوليد,,,0,,,,,,
created_stop_2052,Stop 2052,31.964869,35.921724,,,,,0,,,,,,
created_stop_2053,Stop 2053,31.96599,35.92017,,,,,0,,,,,,
created_stop_2054,Stop 2054,31.967002,35.918568,,,,,0,,,,,,
created_stop_2055,Stop 2055,31.968027,35.916971,,مستشفى هبة للولادة,,,0,,,,,,
created_stop_2056,Stop 2056,31.969101,35.915395,,,,,0,,,,,,
created_stop_2057,Stop 2057,31.970174,35.913819,,شارع خالد بن الوليد,,,0,,,,,,
created_stop_2058,Stop 2058,31.971362,35.912443,,شارع خالد بن الوليد,,,0,,,,,,
created_stop_2059,Stop 2059,31.972657,35.911117,,شارع نابلس,,,0,,,,,,
created_stop_2060,Stop 2060,31.974478,35.911897,,,,,0,,,,,,
created_stop_2061,Stop 2061,31.975372,35.913532,,,,,0,,,,,,
created_stop_2062,Stop 2062,31.975271,35.91531,,,,,0,,,,,,
created_stop_2063,Stop 2063,31.974515,35.916994,,,,,0,,,,,,
created_stop_2064,Stop 2064,31.973432,35.918564,,شارع طبريا,,,0,,,,,,
created_stop_2065,Stop 2065,31.972231,35.920078,,شارع طبريا,,,0,,,,,,
created_stop_2066,Stop 2066,31.970955,35.921304,,شارع الجليل,,,0,,,,,,
created_stop_2067,Stop 2067,31.96956,35.919903,,شارع الجليل,,,0,,,,,,
created_stop_2068,Stop 2068,31.96815,35.918513,,,,,0,,,,,,
created_stop_2069,Stop 2069,31.921234,35.937886,,شارع مصعب بن عمير,,,0,,,,,,
created_stop_2070,Stop 2070,31.920997,35.936098,,شارع مصعب بن عمير,,,0,,,,,,
created_stop_2071,Stop 2071,31.920619,35.934324,,صيدلية سيبال,,,0,,,,,,
created_stop_2072,Stop 2072,31.920181,35.93256,,مطعم تشكن آند مور,,,0,,,,,,
created_stop_2073,Stop 2073,31.919779,35.93079,,شارع الحرم الإبراهيمي,,,0,,,,,,
created_stop_2074,Stop 2074,31.918294,35.930731,,شارع الحرم الإبراهيمي,,,0,,,,,,
created_stop_2075,Stop 2075,31.918459,35.929276,,مسجد حطين,,,0,,,,,,
created_stop_2076,Stop 2076,31.962304,35.902992,,,,,0,,,,,,
created_stop_2077,Stop 2077,31.930009,35.923246,,,,,0,,,,,,
created_stop_2078,Stop 2078,31.92965,35.925002,,شارع أم كلثوم,,,0,,,,,,
created_stop_2079,Stop 2079,31.93051,35.926629,,جمعية دير قديس,,,0,,,,,,
created_stop_2080,Stop 2080,31.930083,35.928259,,جمعية دير قديس,,,0,,,,,,
created_stop_2081,Stop 2081,31.928446,35.929476,,شارع خولة بنت الأزور,,,0,,,,,,
created_stop_2082,Stop 2082,31.92689,35.930761,,شارع خولة بنت الأزور,,,0,,,,,,
created_stop_2083,Stop 2083,31.925311,35.932025,,شارع خولة بنت الأزور,,,0,,,,,,
created_stop_2084,Stop 2084,31.923642,35.933214,,مخابز المحسنين,,,0,,,,,,
created_stop_2085,Stop 2085,31.921974,35.934403,,شارع خولة بنت الأزور,,,0,,,,,,
created_stop_2086,Stop 2086,31.93068,35.922366,,,,,0,,,,,,
created_stop_2087,Stop 2087,31.941455,35.927486,,شارع عبد الله بن الزبير,,,0,,,,,,
created_stop_2088,Stop 2088,31.94334,35.927329,,Abd Allah Ibn Az Zubayr / Stairway 1,,,0,,,,,,
created_stop_2089,Stop 2089,31.943065,35.926182,,شارع نظمي عبد الهادي,,,0,,,,,,
created_stop_2090,Stop 2090,31.940843,35.926146,,مركز أحمد عبد الجواد للالكترونيات,,,0,,,,,,
created_stop_2091,Stop 2091,31.939213,35.926368,,شارع النظيف,,,0,,,,,,
created_stop_2092,Stop 2092,31.937895,35.927133,,شارع خميس علي خميس,,,0,,,,,,
created_stop_2093,Stop 2093,31.936214,35.926336,,شارع طارق بن زياد,,,0,,,,,,
created_stop_2094,Stop 2094,31.940308,35.927009,,شارع الخلود,,,0,,,,,,
created_stop_2095,Stop 2095,31.945444,35.944734,,حديقة اشارات الجوفه,,,0,,,,,,
created_stop_2096,Stop 2096,31.946849,35.943389,,شارع الأبهري,,,0,,,,,,
created_stop_2097,Stop 2097,31.947633,35.941727,,شارع عمواس,,,0,,,,,,
created_stop_2098,Stop 2098,31.94936,35.941014,,شارع الجزائر,,,0,,,,,,
created_stop_2099,Stop 2099,31.951313,35.940224,,شارع الجزائر,,,0,,,,,,
created_stop_2100,Stop 2100,31.952343,35.945164,,شارع الأردن,,,0,,,,,,
created_stop_2101,Stop 2101,31.953205,35.948433,,,,,0,,,,,,
created_stop_2102,Stop 2102,31.953239,35.950226,,Cairo Amman Bank,,,0,,,,,,
created_stop_2103,Stop 2103,31.956284,35.95649,,شارع التاج,,,0,,,,,,
created_stop_2104,Stop 2104,31.95417,35.955953,,شارع أبو الفرج الأصفهاني,,,0,,,,,,
created_stop_2105,Stop 2105,31.952267,35.955045,,شارع عمر المختار ممر 1,,,0,,,,,,
created_stop_2106,Stop 2106,31.95081,35.953706,,شارع التاج,,,0,,,,,,
created_stop_2107,Stop 2107,31.949956,35.952063,,شارع البسمات,,,0,,,,,,
created_stop_2108,Stop 2108,31.949448,35.950312,,جبل التاج,,,0,,,,,,
created_stop_2109,Stop 2109,31.948489,35.948728,,شارع حطين,,,0,,,,,,
created_stop_2110,Stop 2110,31.946736,35.947639,,شارع علي الريماوي,,,0,,,,,,
created_stop_2111,Stop 2111,31.94597,35.945951,,شارع ياسين العسلي,,,0,,,,,,
created_stop_2112,Stop 2112,31.957795,35.956827,,شارع التاج,,,0,,,,,,
created_stop_2113,Stop 2113,31.956061,35.944388,,,,,0,,,,,,
created_stop_2114,Stop 2114,31.958181,35.944036,,,,,0,,,,,,
created_stop_2115,Stop 2115,31.9596,35.94271,,,,,0,,,,,,
created_stop_2116,Stop 2116,31.958705,35.941257,,,,,0,,,,,,
created_stop_2117,Stop 2117,31.958402,35.939476,,,,,0,,,,,,
created_stop_2118,Stop 2118,31.959878,35.938189,,,,,0,,,,,,
created_stop_2119,Stop 2119,31.961797,35.937281,,,,,0,,,,,,
created_stop_2120,Stop 2120,31.963827,35.936806,,شارع أبو العلاء المعري,,,0,,,,,,
created_stop_2121,Stop 2121,31.965425,35.935555,,,,,0,,,,,,
created_stop_2122,Stop 2122,31.966974,35.934269,,,,,0,,,,,,
created_stop_2123,Stop 2123,31.968131,35.932732,,شارع أبو العلاء المعري,,,0,,,,,,
created_stop_2124,Stop 2124,31.969285,35.931194,,شارع أبو العلاء المعري,,,0,,,,,,
created_stop_2125,Stop 2125,31.970467,35.92967,,شارع أبو ذر الغفاري,,,0,,,,,,
created_stop_2126,Stop 2126,31.971834,35.929047,,شارع سعيد بن المسيب,,,0,,,,,,
created_stop_2127,Stop 2127,31.95829,35.938541,,,,,0,,,,,,
created_stop_2128,Stop 2128,31.957747,35.940252,,,,,0,,,,,,
created_stop_2129,Stop 2129,31.957628,35.94202,,شارع منصور بن عراق,,,0,,,,,,
created_stop_2130,Stop 2130,31.957161,35.943589,,,,,0,,,,,,
created_stop_2131,Stop 2131,31.967227,35.964431,,شارع الملك عبدالله الأول,,,0,,,,,,
created_stop_2132,Stop 2132,31.968059,35.965989,,شارع الملك عبدالله الأول,,,0,,,,,,
created_stop_2133,Stop 2133,31.893463,35.841192,,,,,0,,,,,,
created_stop_2134,Stop 2134,31.892617,35.842856,,,,,0,,,,,,
created_stop_2135,Stop 2135,31.891385,35.844344,,شارع فايز خالد المرزوق,,,0,,,,,,
created_stop_2136,Stop 2136,31.890717,35.846057,,شارع الأميرة تغريد محمد,,,0,,,,,,
created_stop_2137,Stop 2137,31.889162,35.849426,,شارع الأميرة تغريد محمد,,,0,,,,,,
created_stop_2138,Stop 2138,31.88831,35.851088,,شارع إسحاق مهاجر,,,0,,,,,,
created_stop_2139,Stop 2139,31.887661,35.852801,,,,,0,,,,,,
created_stop_2140,Stop 2140,31.887572,35.854599,,شارع الأميرة تغريد محمد,,,0,,,,,,
created_stop_2141,Stop 2141,31.88746,35.856397,,,,,0,,,,,,
created_stop_2142,Stop 2142,31.888799,35.844455,,شارع فايز خالد المرزوق,,,0,,,,,,
created_stop_2143,Stop 2143,31.87029,35.819973,,منطقة ناعور,,,0,,,,,,
created_stop_2144,Stop 2144,31.870829,35.817785,,منطقة ناعور,,,0,,,,,,
created_stop_2145,Stop 2145,31.870372,35.816052,,منطقة ناعور,,,0,,,,,,
created_stop_2146,Stop 2146,31.869354,35.814453,,منطقة ناعور,,,0,,,,,,
created_stop_2147,Stop 2147,31.868265,35.812885,,,,,0,,,,,,
created_stop_2148,Stop 2148,31.867085,35.811362,,,,,0,,,,,,
created_stop_2149,Stop 2149,31.865992,35.812071,,,,,0,,,,,,
created_stop_2150,Stop 2150,31.865275,35.813774,,,,,0,,,,,,
created_stop_2151,Stop 2151,31.864498,35.815459,,,,,0,,,,,,
created_stop_2152,Stop 2152,31.864081,35.817205,,,,,0,,,,,,
created_stop_2153,Stop 2153,31.86415,35.818964,,,,,0,,,,,,
created_stop_2154,Stop 2154,31.86449,35.820685,,,,,0,,,,,,
created_stop_2155,Stop 2155,31.864779,35.821705,,,,,0,,,,,,
created_stop_2156,Stop 2156,31.863074,35.822739,,,,,0,,,,,,
created_stop_2157,Stop 2157,31.861669,35.824133,,,,,0,,,,,,
created_stop_2158,Stop 2158,31.860253,35.825519,,ام القطين,,,0,,,,,,
created_stop_2159,Stop 2159,31.858851,35.826914,,ام القطين,,,0,,,,,,
created_stop_2160,Stop 2160,31.857462,35.828318,,شارع مأدبا الغربي,,,0,,,,,,
created_stop_2161,Stop 2161,31.856275,35.829834,,شارع مأدبا الغربي,,,0,,,,,,
created_stop_2162,Stop 2162,31.854151,35.832994,,شارع مأدبا الغربي,,,0,,,,,,
created_stop_2163,Stop 2163,31.853087,35.834574,,شارع مأدبا الغربي,,,0,,,,,,
created_stop_2164,Stop 2164,31.852014,35.83615,,شارع مأدبا الغربي,,,0,,,,,,
created_stop_2165,Stop 2165,31.850943,35.837726,,شارع مأدبا الغربي,,,0,,,,,,
created_stop_2166,Stop 2166,31.84997,35.839344,,شارع مأدبا الغربي,,,0,,,,,,
created_stop_2167,Stop 2167,31.849047,35.84098,,,,,0,,,,,,
created_stop_2168,Stop 2168,31.848223,35.842651,,,,,0,,,,,,
created_stop_2169,Stop 2169,31.847628,35.84438,,,,,0,,,,,,
created_stop_2170,Stop 2170,31.847124,35.846133,,,,,0,,,,,,
created_stop_2171,Stop 2171,31.84661,35.847884,,أدبيان,,,0,,,,,,
created_stop_2172,Stop 2172,31.845997,35.849612,,أدبيان,,,0,,,,,,
created_stop_2173,Stop 2173,31.845063,35.85124,,أدبيان,,,0,,,,,,
created_stop_2174,Stop 2174,31.843947,35.852795,,أدبيان,,,0,,,,,,
created_stop_2175,Stop 2175,31.842859,35.854365,,أدبيان,,,0,,,,,,
created_stop_2176,Stop 2176,31.841915,35.855993,,أدبيان,,,0,,,,,,
created_stop_2177,Stop 2177,31.841141,35.85768,,أدبيان,,,0,,,,,,
created_stop_2178,Stop 2178,31.840463,35.859393,,شارع ناعور,,,0,,,,,,
created_stop_2179,Stop 2179,31.839797,35.86111,,شارع ناعور,,,0,,,,,,
created_stop_2180,Stop 2180,31.839058,35.862806,,شارع ناعور,,,0,,,,,,
created_stop_2181,Stop 2181,31.838285,35.864494,,شارع ناعور,,,0,,,,,,
created_stop_2182,Stop 2182,31.837508,35.866179,,شارع ناعور,,,0,,,,,,
created_stop_2183,Stop 2183,31.836474,35.867765,,شارع ناعور,,,0,,,,,,
created_stop_2184,Stop 2184,31.835144,35.869203,,شارع ناعور,,,0,,,,,,
created_stop_2185,Stop 2185,31.83361,35.870502,,ام العساكر,,,0,,,,,,
created_stop_2186,Stop 2186,31.831877,35.871627,,ام العساكر,,,0,,,,,,
created_stop_2187,Stop 2187,31.830089,35.872695,,مفلح عودة الله العجارمة,,,0,,,,,,
created_stop_2188,Stop 2188,31.828278,35.873737,,مفلح عودة الله العجارمة,,,0,,,,,,
created_stop_2189,Stop 2189,31.826354,35.874548,,مفلح عودة الله العجارمة,,,0,,,,,,
created_stop_2190,Stop 2190,31.82415,35.874326,,مفلح عودة الله العجارمة,,,0,,,,,,
created_stop_2191,Stop 2191,31.822213,35.874882,,ام البساتين,,,0,,,,,,
created_stop_2192,Stop 2192,31.821185,35.876457,,قضاء أم البساتين,,,0,,,,,,
created_stop_2193,Stop 2193,31.820713,35.878216,,قضاء أم البساتين,,,0,,,,,,
created_stop_2194,Stop 2194,31.722328,35.948305,,شارع مطار الملكة علياء,,,0,,,,,,
created_stop_2195,Stop 2195,31.722628,35.950088,,شارع مطار الملكة علياء,,,0,,,,,,
created_stop_2196,Stop 2196,31.722584,35.951886,,شارع مطار الملكة علياء,,,0,,,,,,
created_stop_2197,Stop 2197,31.722389,35.953679,,شارع مطار الملكة علياء,,,0,,,,,,
created_stop_2198,Stop 2198,31.722194,35.955472,,شارع مطار الملكة علياء,,,0,,,,,,
created_stop_2199,Stop 2199,31.721999,35.957265,,فندق مطار عمان,,,0,,,,,,
created_stop_2200,Stop 2200,31.721805,35.959058,,فندق مطار عمان,,,0,,,,,,
created_stop_2201,Stop 2201,31.72161,35.960851,,فندق مطار عمان,,,0,,,,,,
created_stop_2202,Stop 2202,31.721415,35.962644,,فندق مطار عمان,,,0,,,,,,
created_stop_2203,Stop 2203,31.72122,35.964437,,فندق مطار عمان,,,0,,,,,,
created_stop_2204,Stop 2204,31.721025,35.96623,,فندق مطار عمان,,,0,,,,,,
created_stop_2205,Stop 2205,31.72083,35.968023,,Check Point,,,0,,,,,,
created_stop_2206,Stop 2206,31.720635,35.969816,,Check Point,,,0,,,,,,
created_stop_2207,Stop 2207,31.720456,35.97161,,Check Point,,,0,,,,,,
created_stop_2208,Stop 2208,31.720481,35.973401,,Check Point,,,0,,,,,,
created_stop_2209,Stop 2209,31.72072,35.975191,,Check Point,,,0,,,,,,
created_stop_2210,Stop 2210,31.720959,35.97698,,محطة الملكي,,,0,,,,,,
created_stop_2211,Stop 2211,31.721198,35.97877,,محطة الملكي,,,0,,,,,,
created_stop_2212,Stop 2212,31.721437,35.980559,,محطة الملكي,,,0,,,,,,
created_stop_2213,Stop 2213,31.721676,35.982349,,حافلة المطار,,,0,,,,,,
created_stop_2214,Stop 2214,31.721915,35.984138,,حافلة المطار,,,0,,,,,,
created_stop_2215,Stop 2215,31.722154,35.985927,,Orange,,,0,,,,,,
created_stop_2216,Stop 2216,31.722393,35.987717,,إلكترونيات,,,0,,,,,,
created_stop_2217,Stop 2217,31.722632,35.989506,,ستاربكس,,,0,,,,,,
created_stop_2218,Stop 2218,31.722871,35.991296,,ستاربكس,,,0,,,,,,
created_stop_2219,Stop 2219,31.907235,35.938797,,أم الحيران,,,0,,,,,,
created_stop_2220,Stop 2220,31.906992,35.940585,,أم الحيران,,,0,,,,,,
created_stop_2221,Stop 2221,31.906743,35.942374,,أم الحيران,,,0,,,,,,
created_stop_2222,Stop 2222,31.905979,35.944035,,أم الحيران,,,0,,,,,,
created_stop_2223,Stop 2223,31.904859,35.94559,,شارع الحزام الدائري,,,0,,,,,,
created_stop_2224,Stop 2224,31.903701,35.947126,,شارع الحزام الدائري,,,0,,,,,,
created_stop_2225,Stop 2225,31.902822,35.948763,,شارع الحزام الدائري,,,0,,,,,,
created_stop_2226,Stop 2226,31.902431,35.950533,,شارع الحزام الدائري,,,0,,,,,,
created_stop_2227,Stop 2227,31.901985,35.952296,,شارع الحزام الدائري,,,0,,,,,,
created_stop_2228,Stop 2228,31.901509,35.954053,,شارع الحزام الدائري,,,0,,,,,,
created_stop_2229,Stop 2229,31.900947,35.955795,,شارع الحزام الدائري,,,0,,,,,,
created_stop_2230,Stop 2230,31.900371,35.957533,,شارع الحزام الدائري,,,0,,,,,,
created_stop_2231,Stop 2231,31.899819,35.959276,,شارع الحزام الدائري,,,0,,,,,,
created_stop_2232,Stop 2232,31.899301,35.961027,,شارع الحزام الدائري,,,0,,,,,,
created_stop_2233,Stop 2233,31.898782,35.962777,,شارع الحزام الدائري,,,0,,,,,,
created_stop_2234,Stop 2234,31.898303,35.964534,,شارع الحزام الدائري,,,0,,,,,,
created_stop_2235,Stop 2235,31.897856,35.966297,,شارع الحزام الدائري,,,0,,,,,,
created_stop_2236,Stop 2236,31.897409,35.96806,,شارع الحزام الدائري,,,0,,,,,,
created_stop_2237,Stop 2237,31.897003,35.969829,,شارع الحزام الدائري,,,0,,,,,,
created_stop_2238,Stop 2238,31.89669,35.971611,,شارع الحزام الدائري,,,0,,,,,,
created_stop_2239,Stop 2239,31.89613,35.973341,,شارع الحزام الدائري,,,0,,,,,,
created_stop_2240,Stop 2240,31.895298,35.97501,,شارع الأيوبيين,,,0,,,,,,
created_stop_2241,Stop 2241,31.894437,35.976667,,شارع زياد بن كعب,,,0,,,,,,
created_stop_2242,Stop 2242,31.893269,35.978199,,شارع زياد بن كعب,,,0,,,,,,
created_stop_2243,Stop 2243,31.892101,35.979731,,شارع زياد بن كعب,,,0,,,,,,
created_stop_2244,Stop 2244,31.890911,35.981251,,مسجد نمرة,,,0,,,,,,
created_stop_2245,Stop 2245,31.889679,35.98275,,مسجد نمرة,,,0,,,,,,
created_stop_2246,Stop 2246,31.888447,35.984248,,مسجد نمرة,,,0,,,,,,
created_stop_2247,Stop 2247,31.887215,35.985747,,مسجد نمرة,,,0,,,,,,
created_stop_2248,Stop 2248,31.886022,35.987265,,شارع زياد بن كعب,,,0,,,,,,
created_stop_2249,Stop 2249,31.884695,35.988709,,شارع زياد بن كعب,,,0,,,,,,
created_stop_2250,Stop 2250,31.883237,35.990068,,شارع زياد بن كعب,,,0,,,,,,
created_stop_2251,Stop 2251,31.882177,35.991642,,شارع زياد بن كعب,,,0,,,,,,
created_stop_2252,Stop 2252,31.88131,35.9933,,دار,,,0,,,,,,
created_stop_2253,Stop 2253,31.880131,35.994814,,دار,,,0,,,,,,
created_stop_2254,Stop 2254,31.8788,35.996256,,دار,,,0,,,,,,
created_stop_2255,Stop 2255,31.87753,35.997732,,دار,,,0,,,,,,
created_stop_2256,Stop 2256,31.876415,35.999289,,دار,,,0,,,,,,
created_stop_2257,Stop 2257,31.875293,36.000842,,سحاب بالاردن,,,0,,,,,,
created_stop_2258,Stop 2258,31.873702,36.002022,,سحاب بالاردن,,,0,,,,,,
created_stop_2259,Stop 2259,31.871537,36.002701,,شارع زياد بن كعب,,,0,,,,,,
created_stop_2260,Stop 2260,31.870105,36.00363,,شارع زياد بن كعب,,,0,,,,,,
created_stop_2261,Stop 2261,31.869637,36.005388,,شارع زياد بن كعب,,,0,,,,,,
created_stop_2262,Stop 2262,31.869756,36.006895,,شارع زياد بن كعب,,,0,,,,,,
created_stop_2263,Stop 2263,31.971337,35.909598,,شارع الملك الحسين,,,0,,,,,,
created_stop_2264,Stop 2264,31.962189,35.914383,,Beirut International Hotel,,,0,,,,,,
created_stop_2265,Stop 2265,31.957375,35.934611,,شارع الأردن,,,0,,,,,,
created_stop_2266,Stop 2266,31.957087,35.936334,,شارع يوسف محمد الدرابكة,,,0,,,,,,
created_stop_2267,Stop 2267,31.919174,35.928544,,شارع مصعب بن عمير,,,0,,,,,,
created_stop_2268,Stop 2268,31.918775,35.926774,,شارع قدامة بن جعفر,,,0,,,,,,
created_stop_2269,Stop 2269,31.918338,35.925032,,شارع علي يوسف الشيباني,,,0,,,,,,
created_stop_2270,Stop 2270,31.918004,35.923253,,شارع محمد بن سلام الجمحي,,,0,,,,,,
created_stop_2271,Stop 2271,31.917313,35.921771,,شارع خديجة بنت خويلد,,,0,,,,,,
created_stop_2272,Stop 2272,31.91543,35.920815,,شارع أنس بن مالك,,,0,,,,,,
created_stop_2273,Stop 2273,31.913546,35.91986,,المدارس الايوبية الحديثة,,,0,,,,,,
created_stop_2274,Stop 2274,31.913132,35.918207,,صالة سحر الشرق للافراح,,,0,,,,,,
created_stop_2275,Stop 2275,31.913822,35.916496,,سامسونج,,,0,,,,,,
created_stop_2276,Stop 2276,31.914514,35.914785,,شاورما الأصالة,,,0,,,,,,
created_stop_2277,Stop 2277,31.915206,35.913075,,شارع الصخرة المشرفة,,,0,,,,,,
created_stop_2278,Stop 2278,31.915897,35.911364,,McDonald's,,,0,,,,,,
created_stop_2279,Stop 2279,31.916589,35.909654,,شارع محمد الدرة,,,0,,,,,,
created_stop_2280,Stop 2280,31.899108,35.858106,,شارع موسى صالح الحوراني,,,0,,,,,,
created_stop_2281,Stop 2281,31.899914,35.856428,,,,,0,,,,,,
created_stop_2282,Stop 2282,31.90072,35.854751,,,,,0,,,,,,
created_stop_2283,Stop 2283,31.901526,35.853074,,شارع الأمير نايف بن عاصم,,,0,,,,,,
created_stop_2284,Stop 2284,31.886201,35.8564,,,,,0,,,,,,
created_stop_2285,Stop 2285,31.894177,35.839913,,,,,0,,,,,,
created_stop_2286,Stop 2286,31.917022,35.908174,,شارع محمد الدرة,,,0,,,,,,
created_stop_2287,Stop 2287,31.965062,35.965962,,شارع الفروسية,,,0,,,,,,
created_stop_2288,Stop 2288,31.964332,35.967572,,شارع الفروسية,,,0,,,,,,
created_stop_2289,Stop 2289,31.964173,35.968914,,شارع معاوية بن أبي سفيان,,,0,,,,,,
created_stop_2290,Stop 2290,31.962983,35.970981,,شارع السيدة هاجر,,,0,,,,,,
created_stop_2291,Stop 2291,31.962044,35.972599,,شارع الفروسية,,,0,,,,,,
created_stop_2292,Stop 2292,31.961636,35.974249,,شارع الفروسية,,,0,,,,,,
created_stop_2293,Stop 2293,31.962127,35.975929,,شارع الفروسية,,,0,,,,,,
created_stop_2294,Stop 2294,31.960597,35.977236,,شارع رام الله,,,0,,,,,,
created_stop_2295,Stop 2295,31.959306,35.978659,,شارع رام الله,,,0,,,,,,
created_stop_2296,Stop 2296,31.957713,35.979915,,شارع رام الله,,,0,,,,,,
created_stop_2297,Stop 2297,31.95592,35.980972,,شارع رام الله,,,0,,,,,,
created_stop_2298,Stop 2298,31.954387,35.982276,,شارع رام الله,,,0,,,,,,
created_stop_2299,Stop 2299,31.952867,35.98359,,الربوة,,,0,,,,,,
created_stop_2300,Stop 2300,31.951396,35.984936,,الربوة,,,0,,,,,,
created_stop_2301,Stop 2301,31.951182,35.986265,,الربوة,,,0,,,,,,
created_stop_2302,Stop 2302,31.951393,35.987292,,الربوة,,,0,,,,,,
created_stop_2303,Stop 2303,31.949425,35.986932,,الربوة,,,0,,,,,,
created_stop_2304,Stop 2304,31.949377,35.988731,,الربوة,,,0,,,,,,
created_stop_2305,Stop 2305,31.949039,35.990496,,الربوة,,,0,,,,,,
created_stop_2306,Stop 2306,31.94786,35.992019,,الربوة,,,0,,,,,,
created_stop_2307,Stop 2307,31.946402,35.993347,,شارع الحزام الدائري,,,0,,,,,,
created_stop_2308,Stop 2308,31.945382,35.994931,,شارع الحزام الدائري,,,0,,,,,,
created_stop_2309,Stop 2309,31.944502,35.996584,,شارع الحزام الدائري,,,0,,,,,,
created_stop_2310,Stop 2310,31.94363,35.99824,,بيت ابرار,,,0,,,,,,
created_stop_2311,Stop 2311,31.942758,35.999896,,بيت ابرار,,,0,,,,,,
created_stop_2312,Stop 2312,31.942163,36.001487,,بيت ابرار,,,0,,,,,,
created_stop_2313,Stop 2313,31.944307,36.001013,,بيت ابرار,,,0,,,,,,
created_stop_2314,Stop 2314,31.945026,35.999758,,بيت ابرار,,,0,,,,,,
created_stop_2315,Stop 2315,31.944788,35.998137,,بيت ابرار,,,0,,,,,,
created_stop_2316,Stop 2316,31.966127,35.965535,,المحطة,,,0,,,,,,
created_stop_2317,Stop 2317,31.958575,35.980791,,شارع رام الله,,,0,,,,,,
created_stop_2318,Stop 2318,31.959262,35.982503,,شارع الطيبة,,,0,,,,,,
created_stop_2319,Stop 2319,31.959931,35.984219,,شارع الطيبة,,,0,,,,,,
created_stop_2320,Stop 2320,31.960425,35.985971,,,,,0,,,,,,
created_stop_2321,Stop 2321,31.958798,35.986593,,شارع الطيبة,,,0,,,,,,
created_stop_2322,Stop 2322,31.956964,35.987527,,شارع الطيبة,,,0,,,,,,
created_stop_2323,Stop 2323,31.955764,35.989039,,الربوة,,,0,,,,,,
created_stop_2324,Stop 2324,31.95462,35.990582,,الربوة,,,0,,,,,,
created_stop_2325,Stop 2325,31.953481,35.992129,,شارع الحزام الدائري,,,0,,,,,,
created_stop_2326,Stop 2326,31.952326,35.993667,,شارع الحزام الدائري,,,0,,,,,,
created_stop_2327,Stop 2327,31.951216,35.995226,,شارع الحزام الدائري,,,0,,,,,,
created_stop_2328,Stop 2328,31.950094,35.996781,,شارع الحزام الدائري,,,0,,,,,,
created_stop_2329,Stop 2329,31.948971,35.998334,,شارع الحزام الدائري,,,0,,,,,,
created_stop_2330,Stop 2330,31.947857,35.999892,,بيت ابرار,,,0,,,,,,
created_stop_2331,Stop 2331,31.948003,36.001364,,بيت ابرار,,,0,,,,,,
created_stop_2332,Stop 2332,31.949169,36.002691,,بيت ابرار,,,0,,,,,,
created_stop_2333,Stop 2333,31.949151,36.003834,,بيت ابرار,,,0,,,,,,
created_stop_2334,Stop 2334,31.950676,36.005468,,بيت ابرار,,,0,,,,,,
created_stop_2335,Stop 2335,31.952772,36.005643,,صالحية العابد,,,0,,,,,,
created_stop_2336,Stop 2336,31.954939,36.005737,,صالحية العابد,,,0,,,,,,
created_stop_2337,Stop 2337,31.956814,36.006444,,صالحية العابد,,,0,,,,,,
created_stop_2338,Stop 2338,31.957681,36.007929,,صالحية العابد,,,0,,,,,,
created_stop_2339,Stop 2339,31.957313,36.0097,,صالحية العابد,,,0,,,,,,
created_stop_2340,Stop 2340,31.956812,36.011445,,,,,0,,,,,,
created_stop_2341,Stop 2341,31.958374,36.012473,,,,,0,,,,,,
created_stop_2342,Stop 2342,31.959333,36.014033,,,,,0,,,,,,
created_stop_2343,Stop 2343,31.959752,36.015796,,,,,0,,,,,,
created_stop_2344,Stop 2344,31.96006,36.017578,,,,,0,,,,,,
created_stop_2345,Stop 2345,31.961474,36.018295,,,,,0,,,,,,
created_stop_2346,Stop 2346,31.962788,36.017016,,,,,0,,,,,,
created_stop_2347,Stop 2347,31.964331,36.015749,,,,,0,,,,,,
created_stop_2348,Stop 2348,31.961745,35.969254,,شارع السيدة زينب,,,0,,,,,,
created_stop_2349,Stop 2349,31.960383,35.970463,,شارع السيدة زينب,,,0,,,,,,
created_stop_2350,Stop 2350,31.959361,35.972054,,الأمير الحسن,,,0,,,,,,
created_stop_2351,Stop 2351,31.95805,35.973497,,الأمير الحسن,,,0,,,,,,
created_stop_2352,Stop 2352,31.956213,35.974116,,الأمير الحسن,,,0,,,,,,
created_stop_2353,Stop 2353,31.954912,35.973052,,شارع أم سلمى,,,0,,,,,,
created_stop_2354,Stop 2354,31.953636,35.97158,,شارع أم سلمى,,,0,,,,,,
created_stop_2355,Stop 2355,31.95242,35.970073,,شارع فلسطين,,,0,,,,,,
created_stop_2356,Stop 2356,31.952157,35.968412,,شارع عدن,,,0,,,,,,
created_stop_2357,Stop 2357,31.952086,35.966571,,شارع أبو طالب,,,0,,,,,,
created_stop_2358,Stop 2358,31.95056,35.971584,,شارع عدن,,,0,,,,,,
created_stop_2359,Stop 2359,31.949218,35.973018,,شارع عدن,,,0,,,,,,
created_stop_2360,Stop 2360,31.947618,35.974258,,شارع عدن,,,0,,,,,,
created_stop_2361,Stop 2361,31.945572,35.974956,,,,,0,,,,,,
created_stop_2362,Stop 2362,31.94372,35.975861,,شارع عدن,,,0,,,,,,
created_stop_2363,Stop 2363,31.942136,35.977111,,شارع عدن,,,0,,,,,,
created_stop_2364,Stop 2364,31.940288,35.977509,,شارع عدن,,,0,,,,,,
created_stop_2365,Stop 2365,31.938359,35.978394,,شارع عدن,,,0,,,,,,
created_stop_2366,Stop 2366,31.936721,35.978363,,شارع عدن,,,0,,,,,,
created_stop_2367,Stop 2367,31.936071,35.976642,,شارع عدن,,,0,,,,,,
created_stop_2368,Stop 2368,31.935904,35.97486,,شارع الجسور العشارة,,,0,,,,,,
created_stop_2369,Stop 2369,31.936655,35.973178,,شارع الجسور العشارة,,,0,,,,,,
created_stop_2370,Stop 2370,31.937982,35.971737,,شارع عدن,,,0,,,,,,
created_stop_2371,Stop 2371,31.93933,35.970336,,شارع المنارة,,,0,,,,,,
created_stop_2372,Stop 2372,32.000995,35.969914,,شارع بيت الرضوان,,,0,,,,,,
created_stop_2373,Stop 2373,32.000317,35.971049,,شارع بيت الرضوان,,,0,,,,,,
created_stop_2374,Stop 2374,31.95331,35.981737,,الربوة,,,0,,,,,,
created_stop_2375,Stop 2375,31.953436,35.980018,,شارع رام الله,,,0,,,,,,
created_stop_2376,Stop 2376,31.952163,35.98148,,الربوة,,,0,,,,,,
created_stop_2377,Stop 2377,31.950948,35.982971,,الربوة,,,0,,,,,,
created_stop_2378,Stop 2378,31.949271,35.983972,,الربوة,,,0,,,,,,
created_stop_2379,Stop 2379,31.949351,35.985771,,الربوة,,,0,,,,,,
created_stop_2380,Stop 2380,31.966282,35.963783,,شارع الملك عبدالله الأول,,,0,,,,,,
created_stop_2381,Stop 2381,31.960492,35.969561,,شارع السيدة زينب,,,0,,,,,,
created_stop_2382,Stop 2382,31.959082,35.96927,,شارع النصر,,,0,,,,,,
created_stop_2383,Stop 2383,31.960035,35.96761,,شارع النصر,,,0,,,,,,
created_stop_2384,Stop 2384,31.960818,35.965928,,شارع النصر,,,0,,,,,,
created_stop_2385,Stop 2385,31.960596,35.964151,,جبل النصر,,,0,,,,,,
created_stop_2386,Stop 2386,31.960516,35.962359,,شارع النصر,,,0,,,,,,
created_stop_2387,Stop 2387,31.960313,35.960631,,,,,0,,,,,,
created_stop_2388,Stop 2388,31.958767,35.960953,,شارع النصر,,,0,,,,,,
created_stop_2389,Stop 2389,31.959828,35.954435,,شارع فاطمة بنت الحسين,,,0,,,,,,
created_stop_2390,Stop 2390,31.960154,35.952659,,شارع ميسرة العبسي,,,0,,,,,,
created_stop_2391,Stop 2391,31.96074,35.950929,,شارع فاطمة بنت الحسين,,,0,,,,,,
created_stop_2392,Stop 2392,31.961625,35.949278,,شارع محمود اللوباني,,,0,,,,,,
created_stop_2393,Stop 2393,31.963387,35.949051,,,,,0,,,,,,
created_stop_2394,Stop 2394,31.963409,35.950498,,,,,0,,,,,,
created_stop_2395,Stop 2395,31.962481,35.952133,,,,,0,,,,,,
created_stop_2396,Stop 2396,31.957373,35.9776,,شارع رام الله,,,0,,,,,,
created_stop_2397,Stop 2397,31.956227,35.979701,,شارع رام الله,,,0,,,,,,
created_stop_2398,Stop 2398,31.944633,35.931707,,المستشفى الإيطالي,,,0,,,,,,
created_stop_2399,Stop 2399,31.944303,35.929944,,شارع قريش ممر 1,,,0,,,,,,
created_stop_2400,Stop 2400,31.937607,35.932392,,شارع عباس الجوهري,,,0,,,,,,
created_stop_2401,Stop 2401,31.938863,35.933716,,شارع عباس الجوهري,,,0,,,,,,
created_stop_2402,Stop 2402,31.940542,35.934526,,شارع أبو درويش,,,0,,,,,,
created_stop_2403,Stop 2403,31.941116,35.936209,,شارع بدر,,,0,,,,,,
created_stop_2404,Stop 2404,31.94066,35.937676,,شارع حسبان,,,0,,,,,,
created_stop_2405,Stop 2405,31.942318,35.936677,,شارع الرماة,,,0,,,,,,
created_stop_2406,Stop 2406,31.943168,35.935813,,شارع حاتم الطائي,,,0,,,,,,
created_stop_2407,Stop 2407,31.943314,35.934085,,Hatem Al Ta'i Stairs 8,,,0,,,,,,
created_stop_2408,Stop 2408,31.942285,35.932671,,شارع الضيافة,,,0,,,,,,
created_stop_2409,Stop 2409,31.943612,35.933004,,شارع الكويت,,,0,,,,,,
created_stop_2410,Stop 2410,31.944805,35.934391,,شارع الفجيرة,,,0,,,,,,
created_stop_2411,Stop 2411,31.938827,35.92868,,شارع حذيفة بن اليمان,,,0,,,,,,
created_stop_2412,Stop 2412,31.937028,35.928692,,شارع مالك بن الطيحان,,,0,,,,,,
created_stop_2413,Stop 2413,31.935247,35.929559,,شارع عبد السلام رشيد,,,0,,,,,,
created_stop_2414,Stop 2414,31.93428,35.927959,,شارع المريخ,,,0,,,,,,
created_stop_2415,Stop 2415,31.933371,35.926386,,شارع محمد سليم الطراونة,,,0,,,,,,
created_stop_2416,Stop 2416,31.935328,35.927457,,مسجد المؤمنون,,,0,,,,,,
created_stop_2417,Stop 2417,31.919426,35.929731,,سوق الوحدات الشعبي,,,0,,,,,,
created_stop_2418,Stop 2418,31.946176,35.933345,,,,,0,,,,,,
created_stop_2419,Stop 2419,31.958475,35.954925,,شارع الجيش,,,0,,,,,,
created_stop_2420,Stop 2420,31.956848,35.953706,,شارع الجيش,,,0,,,,,,
created_stop_2421,Stop 2421,31.9991,35.87106,,One Minute,,,0,,,,,,
created_stop_2422,Stop 2422,31.999034,35.869279,,شارع خليل السالم,,,0,,,,,,
created_stop_2423,Stop 2423,31.999231,35.867488,,alsultan bucher,,,0,,,,,,
created_stop_2424,Stop 2424,31.998857,35.865749,,شارع خليل السالم,,,0,,,,,,
created_stop_2425,Stop 2425,32.000303,35.86888,,,,,0,,,,,,
created_stop_2426,Stop 2426,32.002399,35.868353,,شارع عبد ربه الكايد العساف,,,0,,,,,,
created_stop_2427,Stop 2427,32.004369,35.867529,,,,,0,,,,,,
created_stop_2428,Stop 2428,32.006316,35.866663,,,,,0,,,,,,
created_stop_2429,Stop 2429,32.008041,35.865546,,,,,0,,,,,,
created_stop_2430,Stop 2430,32.00964,35.864297,,Farah O Shahid,,,0,,,,,,
created_stop_2431,Stop 2431,32.011356,35.86316,,,,,0,,,,,,
created_stop_2432,Stop 2432,32.012837,35.861833,,,,,0,,,,,,
created_stop_2433,Stop 2433,32.013983,35.860782,,,,,0,,,,,,
created_stop_2434,Stop 2434,32.015543,35.862063,,,,,0,,,,,,
created_stop_2435,Stop 2435,32.015102,35.863809,,شمس,,,0,,,,,,
created_stop_2436,Stop 2436,32.015029,35.865607,,,,,0,,,,,,
created_stop_2437,Stop 2437,31.944828,35.94361,,شارع الطور ممر 1,,,0,,,,,,
created_stop_2438,Stop 2438,31.944089,35.941913,,شارع التاج,,,0,,,,,,
created_stop_2439,Stop 2439,31.943462,35.940187,,شارع التاج ممر 8,,,0,,,,,,
created_stop_2440,Stop 2440,31.942113,35.938794,,شارع بدر,,,0,,,,,,
created_stop_2441,Stop 2441,31.926168,35.918834,,شارع طه الراوي,,,0,,,,,,
created_stop_2442,Stop 2442,31.925106,35.918017,,بقالة ابو علي ابو شوشة,,,0,,,,,,
created_stop_2443,Stop 2443,31.923936,35.917148,,مسجد عثمان بن عفان,,,0,,,,,,
created_stop_2444,Stop 2444,31.922304,35.918342,,شارع الفراء,,,0,,,,,,
created_stop_2445,Stop 2445,31.980999,35.971275,,شارع محمد ضياء الحق,,,0,,,,,,
created_stop_2446,Stop 2446,31.981916,35.969666,,شارع محمد ضياء الحق,,,0,,,,,,
created_stop_2447,Stop 2447,31.9816,35.967902,,شارع محمد ضياء الحق,,,0,,,,,,
created_stop_2448,Stop 2448,31.981427,35.966117,,شارع محمد ضياء الحق,,,0,,,,,,
created_stop_2449,Stop 2449,31.981516,35.964319,,شارع محمد ضياء الحق,,,0,,,,,,
created_stop_2450,Stop 2450,31.981675,35.962524,,شارع محمد زين العابدين,,,0,,,,,,
created_stop_2451,Stop 2451,31.982155,35.960771,,شارع محمد زين العابدين,,,0,,,,,,
created_stop_2452,Stop 2452,31.982752,35.959038,,شارع محمد ضياء الحق,,,0,,,,,,
created_stop_2453,Stop 2453,31.983542,35.957356,,شارع محمد ضياء الحق,,,0,,,,,,
created_stop_2454,Stop 2454,31.984351,35.95568,,شارع البداوة,,,0,,,,,,
created_stop_2455,Stop 2455,31.985076,35.953979,,شارع محمد ضياء الحق,,,0,,,,,,
created_stop_2456,Stop 2456,31.985856,35.952297,,شارع ثويبة,,,0,,,,,,
created_stop_2457,Stop 2457,31.986883,35.950701,,شارع محمد ضياء الحق,,,0,,,,,,
created_stop_2458,Stop 2458,32.00317,35.949544,,,,,0,,,,,,
created_stop_2459,Stop 2459,32.004436,35.950352,,,,,0,,,,,,
created_stop_2460,Stop 2460,32.004467,35.952029,,شارع المرحبا,,,0,,,,,,
created_stop_2461,Stop 2461,32.003912,35.953771,,,,,0,,,,,,
created_stop_2462,Stop 2462,32.005246,35.954925,,,,,0,,,,,,
created_stop_2463,Stop 2463,32.006649,35.956071,,,,,0,,,,,,
created_stop_2464,Stop 2464,32.005908,35.957764,,شارع عليان العظامات,,,0,,,,,,
created_stop_2465,Stop 2465,32.006442,35.959364,,شارع المنفلوطي,,,0,,,,,,
created_stop_2466,Stop 2466,32.007755,35.960767,,,,,0,,,,,,
created_stop_2467,Stop 2467,32.00956,35.960594,,,,,0,,,,,,
created_stop_2468,Stop 2468,32.010387,35.958924,,شارع الأمير فيصل بن الحسين,,,0,,,,,,
created_stop_2469,Stop 2469,32.011261,35.957269,,,,,0,,,,,,
created_stop_2470,Stop 2470,32.011733,35.955531,,شارع الأمير فيصل بن الحسين,,,0,,,,,,
created_stop_2471,Stop 2471,32.012136,35.95379,,,,,0,,,,,,
created_stop_2472,Stop 2472,32.01291,35.952104,,,,,0,,,,,,
created_stop_2473,Stop 2473,32.012582,35.9511,,شارع طبربور,,,0,,,,,,
created_stop_2474,Stop 2474,32.01089,35.952251,,شارع طبربور,,,0,,,,,,
created_stop_2475,Stop 2475,32.008738,35.951994,,شارع طبربور,,,0,,,,,,
created_stop_2476,Stop 2476,32.006599,35.951064,,Ajyal Alfarooq,,,0,,,,,,
created_stop_2477,Stop 2477,31.865135,35.928492,,,,,0,,,,,,
created_stop_2478,Stop 2478,31.863988,35.930034,,,,,0,,,,,,
created_stop_2479,Stop 2479,31.862745,35.931525,,جاوا الشمالي,,,0,,,,,,
created_stop_2480,Stop 2480,31.861427,35.932974,,جاوا,,,0,,,,,,
created_stop_2481,Stop 2481,31.860113,35.934425,,جاوا,,,0,,,,,,
created_stop_2482,Stop 2482,31.858526,35.935677,,جاوا,,,0,,,,,,
created_stop_2483,Stop 2483,31.856986,35.93697,,أزياء بيلسان و حلا,,,0,,,,,,
created_stop_2484,Stop 2484,31.855357,35.938151,,أزياء بيلسان و حلا,,,0,,,,,,
created_stop_2485,Stop 2485,31.853186,35.938359,,أزياء بيلسان و حلا,,,0,,,,,,
created_stop_2486,Stop 2486,31.851044,35.938599,,أزياء بيلسان و حلا,,,0,,,,,,
created_stop_2487,Stop 2487,31.850735,35.940305,,أزياء بيلسان و حلا,,,0,,,,,,
created_stop_2488,Stop 2488,31.850498,35.942072,,أزياء بيلسان و حلا,,,0,,,,,,
created_stop_2489,Stop 2489,31.849593,35.943712,,الوفاء,,,0,,,,,,
created_stop_2490,Stop 2490,31.848328,35.94519,,الوفاء,,,0,,,,,,
created_stop_2491,Stop 2491,31.846601,35.946317,,الوفاء,,,0,,,,,,
created_stop_2492,Stop 2492,31.844889,35.947459,,الوفاء,,,0,,,,,,
created_stop_2493,Stop 2493,31.843002,35.948364,,الوفاء,,,0,,,,,,
created_stop_2494,Stop 2494,31.840898,35.948927,,الوفاء,,,0,,,,,,
created_stop_2495,Stop 2495,31.839591,35.950348,,الوفاء,,,0,,,,,,
created_stop_2496,Stop 2496,31.837947,35.951208,,الوفاء,,,0,,,,,,
created_stop_2497,Stop 2497,31.836511,35.95252,,الوفاء,,,0,,,,,,
created_stop_2498,Stop 2498,31.836509,35.954079,,الوفاء,,,0,,,,,,
created_stop_2499,Stop 2499,31.83858,35.954302,,الوفاء,,,0,,,,,,
created_stop_2500,Stop 2500,31.840574,35.953519,,الوفاء,,,0,,,,,,
created_stop_2501,Stop 2501,31.842491,35.953206,,الوفاء,,,0,,,,,,
created_stop_2502,Stop 2502,31.844061,35.954481,,الوفاء,,,0,,,,,,
created_stop_2503,Stop 2503,31.845758,35.953828,,الوفاء,,,0,,,,,,
created_stop_2504,Stop 2504,31.846792,35.952267,,الوفاء,,,0,,,,,,
created_stop_2505,Stop 2505,31.8476,35.95059,,الوفاء,,,0,,,,,,
created_stop_2506,Stop 2506,31.848878,35.949224,,الوفاء,,,0,,,,,,
created_stop_2507,Stop 2507,31.850016,35.947678,,الوفاء,,,0,,,,,,
created_stop_2508,Stop 2508,31.851159,35.946135,,,,,0,,,,,,
created_stop_2509,Stop 2509,31.85192,35.944512,,أزياء بيلسان و حلا,,,0,,,,,,
created_stop_2510,Stop 2510,31.851983,35.942713,,أزياء بيلسان و حلا,,,0,,,,,,
created_stop_2511,Stop 2511,31.852238,35.940936,,أزياء بيلسان و حلا,,,0,,,,,,
created_stop_2512,Stop 2512,31.852471,35.939151,,أزياء بيلسان و حلا,,,0,,,,,,
created_stop_2513,Stop 2513,31.862577,35.932824,,جاوا الشمالي,,,0,,,,,,
created_stop_2514,Stop 2514,31.864635,35.932145,,جاوا الشمالي,,,0,,,,,,
created_stop_2515,Stop 2515,31.866705,35.931489,,,,,0,,,,,,
created_stop_2516,Stop 2516,31.868775,35.930833,,,,,0,,,,,,
created_stop_2517,Stop 2517,31.897501,35.93847,,,,,0,,,,,,
created_stop_2518,Stop 2518,31.899688,35.938146,,,,,0,,,,,,
created_stop_2519,Stop 2519,31.90185,35.937733,,الماسية للتجارة و خدمات السيارات,,,0,,,,,,
created_stop_2520,Stop 2520,31.962475,35.93061,,شارع أبو ذر الغفاري,,,0,,,,,,
created_stop_2521,Stop 2521,31.96423,35.929535,,,,,0,,,,,,
created_stop_2522,Stop 2522,31.966222,35.928791,,,,,0,,,,,,
created_stop_2523,Stop 2523,31.9684,35.928501,,,,,0,,,,,,
created_stop_2524,Stop 2524,31.972779,35.927272,,شارع سعيد بن المسيب,,,0,,,,,,
created_stop_2525,Stop 2525,31.974348,35.926008,,شارع عيسى الأيوبي,,,0,,,,,,
created_stop_2526,Stop 2526,31.976174,35.924983,,,,,0,,,,,,
created_stop_2527,Stop 2527,31.978244,35.924491,,شارع السلطان قلاوون,,,0,,,,,,
created_stop_2528,Stop 2528,31.980457,35.924363,,,,,0,,,,,,
created_stop_2529,Stop 2529,31.982673,35.924232,,شارع السلطان قلاوون,,,0,,,,,,
created_stop_2530,Stop 2530,31.984886,35.924069,,مطعم الهنيني,,,0,,,,,,
created_stop_2531,Stop 2531,31.987101,35.923944,,(سرايا مول (كارفور,,,0,,,,,,
created_stop_2532,Stop 2532,31.988662,35.923913,,,,,0,,,,,,
created_stop_2533,Stop 2533,31.990726,35.923262,,شارع سليمان الخزاعلة,,,0,,,,,,
created_stop_2534,Stop 2534,31.992032,35.92369,,شارع جبل الرحمة,,,0,,,,,,
created_stop_2535,Stop 2535,31.991976,35.92549,,,,,0,,,,,,
created_stop_2536,Stop 2536,31.962115,35.957413,,موقف باص جسر المربط,,,0,,,,,,
created_stop_2537,Stop 2537,31.963517,35.955689,,شارع محمود كريشان ممر 3,,,0,,,,,,
created_stop_2538,Stop 2538,31.964466,35.954069,,شارع سعد بن معاذ,,,0,,,,,,
created_stop_2539,Stop 2539,31.965105,35.952345,,شارع الاستقلال,,,0,,,,,,
created_stop_2540,Stop 2540,31.966065,35.950732,,خنيفسة,,,0,,,,,,
created_stop_2541,Stop 2541,31.967276,35.949225,,خنيفسة,,,0,,,,,,
created_stop_2542,Stop 2542,31.967942,35.947521,,شارع الاستقلال,,,0,,,,,,
created_stop_2543,Stop 2543,31.968396,35.945759,,شارع زين العابدين,,,0,,,,,,
created_stop_2544,Stop 2544,31.968978,35.944028,,شارع الاستقلال,,,0,,,,,,
created_stop_2545,Stop 2545,31.969804,35.942357,,شارع الاستقلال,,,0,,,,,,
created_stop_2546,Stop 2546,31.970631,35.940686,,شارع عبدالحميد سليمان,,,0,,,,,,
created_stop_2547,Stop 2547,31.971457,35.939016,,موقف باص,,,0,,,,,,
created_stop_2548,Stop 2548,31.972283,35.937345,,,,,0,,,,,,
created_stop_2549,Stop 2549,31.97311,35.935674,,شارع الأقصى,,,0,,,,,,
created_stop_2550,Stop 2550,31.974655,35.934578,,شارع عيد الفقيه,,,0,,,,,,
created_stop_2551,Stop 2551,31.976622,35.933744,,,,,0,,,,,,
created_stop_2552,Stop 2552,31.978726,35.933211,,شارع حسين بن الحارث,,,0,,,,,,
created_stop_2553,Stop 2553,31.980902,35.932844,,,,,0,,,,,,
created_stop_2554,Stop 2554,31.983077,35.932474,,ديوان الخدمة المدنية - شارع الأقصى,,,0,,,,,,
created_stop_2555,Stop 2555,31.985252,35.932103,,,,,0,,,,,,
created_stop_2556,Stop 2556,31.987421,35.931719,,شارع الأقصى,,,0,,,,,,
created_stop_2557,Stop 2557,31.989313,35.930774,,شارع الأقصى,,,0,,,,,,
created_stop_2558,Stop 2558,31.991215,35.929843,,,,,0,,,,,,
created_stop_2559,Stop 2559,31.99527,35.930943,,,,,0,,,,,,
created_stop_2560,Stop 2560,31.997399,35.93146,,,,,0,,,,,,
created_stop_2561,Stop 2561,31.999532,35.931959,,شارع نور سلطان نزار باييف,,,0,,,,,,
created_stop_2562,Stop 2562,32.001436,35.932874,,,,,0,,,,,,
created_stop_2563,Stop 2563,32.003236,35.93393,,شارع طارق,,,0,,,,,,
created_stop_2564,Stop 2564,32.003408,35.93563,,شارع ثمامة اليمامي,,,0,,,,,,
created_stop_2565,Stop 2565,32.005231,35.936296,,,,,0,,,,,,
created_stop_2566,Stop 2566,32.00665,35.936971,,,,,0,,,,,,
created_stop_2567,Stop 2567,32.007921,35.935496,,شارع عمره النجارية,,,0,,,,,,
created_stop_2568,Stop 2568,32.009415,35.93544,,,,,0,,,,,,
created_stop_2569,Stop 2569,32.010586,35.936292,,شارع عثمان الحويطات,,,0,,,,,,
created_stop_2570,Stop 2570,32.010904,35.937832,,شارع الأمير فيصل بن الحسين,,,0,,,,,,
created_stop_2571,Stop 2571,32.010893,35.939134,,,,,0,,,,,,
created_stop_2572,Stop 2572,32.009722,35.937738,,,,,0,,,,,,
created_stop_2573,Stop 2573,32.009078,35.938974,,,,,0,,,,,,
created_stop_2574,Stop 2574,32.006909,35.939243,,شارع عنترة بن شداد,,,0,,,,,,
created_stop_2575,Stop 2575,32.004744,35.939453,,شارع عنترة بن شداد,,,0,,,,,,
created_stop_2576,Stop 2576,32.003199,35.938309,,شارع عنترة بن شداد,,,0,,,,,,
created_stop_2577,Stop 2577,31.995189,35.918523,,شارع الأردن,,,0,,,,,,
created_stop_2578,Stop 2578,31.931149,35.92763,,منطقة رأس العين,,,0,,,,,,
created_stop_2579,Stop 2579,31.947448,35.916463,,شارع عمر مطر,,,0,,,,,,
created_stop_2580,Stop 2580,31.920951,35.936998,,شارع مصعب بن عمير,,,0,,,,,,
created_stop_2581,Stop 2581,31.957558,35.879939,,شارع الأميرة بسمة,,,0,,,,,,
created_stop_2582,Stop 2582,31.962095,35.882141,,شارع الكندي,,,0,,,,,,
created_stop_2583,Stop 2583,32.018354,35.865415,,BRT Bus Stop,,,0,,,,,,
created_stop_2584,Stop 2584,31.946219,35.908465,,شارع الأميرة بسمة,,,0,,,,,,
created_stop_2585,Stop 2585,31.961319,35.85698,,,,,0,,,,,,
created_stop_2586,Stop 2586,32.030973,35.87085,,,,,0,,,,,,
created_stop_2587,Stop 2587,32.032865,35.869914,,,,,0,,,,,,
created_stop_2588,Stop 2588,32.034519,35.868724,,,,,0,,,,,,
created_stop_2589,Stop 2589,32.036007,35.867388,,شارع جوهر الصقلي,,,0,,,,,,
created_stop_2590,Stop 2590,32.022134,35.843466,,تقاطع صويلح,,,0,,,,,,
created_stop_2591,Stop 2591,32.024181,35.842785,,شارع الملك عبدالله بن الحسين الثاني,,,0,,,,,,
created_stop_2592,Stop 2592,32.025542,35.841363,,,,,0,,,,,,
created_stop_2593,Stop 2593,32.027345,35.840408,,شارع ربيعة بن عامر,,,0,,,,,,
created_stop_2594,Stop 2594,32.029524,35.840087,,مؤسسة ابو حطب للمواد التموينية,,,0,,,,,,
created_stop_2595,Stop 2595,32.031281,35.839019,,,,,0,,,,,,
created_stop_2596,Stop 2596,32.032219,35.837403,,شارع الملك عبدالله بن الحسين الثاني,,,0,,,,,,
created_stop_2597,Stop 2597,32.032721,35.835657,,,,,0,,,,,,
created_stop_2598,Stop 2598,32.032996,35.833871,,وادي صويلح,,,0,,,,,,
created_stop_2599,Stop 2599,32.03342,35.832114,,نزول البقعه,,,0,,,,,,
created_stop_2600,Stop 2600,32.035136,35.831383,,توتال,,,0,,,,,,
created_stop_2601,Stop 2601,32.036444,35.832769,,توتال,,,0,,,,,,
created_stop_2602,Stop 2602,32.037461,35.834369,,شارع الملك عبدالله بن الحسين الثاني,,,0,,,,,,
created_stop_2603,Stop 2603,32.038466,35.83597,,شارع الملك عبدالله بن الحسين الثاني,,,0,,,,,,
created_stop_2604,Stop 2604,32.040174,35.836945,,شارع الملك عبدالله بن الحسين الثاني,,,0,,,,,,
created_stop_2605,Stop 2605,32.042375,35.83671,,شارع الملك عبدالله بن الحسين الثاني,,,0,,,,,,
created_stop_2606,Stop 2606,32.044582,35.836517,,شارع الملك عبدالله بن الحسين الثاني,,,0,,,,,,
created_stop_2607,Stop 2607,32.046474,35.837345,,,,,0,,,,,,
created_stop_2608,Stop 2608,32.047434,35.838949,,,,,0,,,,,,
created_stop_2609,Stop 2609,32.047736,35.840732,,,,,0,,,,,,
created_stop_2610,Stop 2610,32.04807,35.842502,,شارع الملك عبدالله بن الحسين الثاني,,,0,,,,,,
created_stop_2611,Stop 2611,32.049189,35.84401,,شارع الملك عبدالله بن الحسين الثاني,,,0,,,,,,
created_stop_2612,Stop 2612,32.051096,35.844931,,شارع الملك عبدالله بن الحسين الثاني,,,0,,,,,,
created_stop_2613,Stop 2613,32.05319,35.845445,,شارع الملك عبدالله بن الحسين الثاني,,,0,,,,,,
created_stop_2614,Stop 2614,32.055321,35.84512,,شارع الملك عبدالله بن الحسين الثاني,,,0,,,,,,
created_stop_2615,Stop 2615,32.057092,35.844069,,شارع الملك عبدالله بن الحسين الثاني,,,0,,,,,,
created_stop_2616,Stop 2616,32.058682,35.842813,,شارع الملك عبدالله بن الحسين الثاني,,,0,,,,,,
created_stop_2617,Stop 2617,32.060272,35.841557,,شارع الملك عبدالله بن الحسين الثاني,,,0,,,,,,
created_stop_2618,Stop 2618,32.06187,35.840307,,شارع الملك عبدالله بن الحسين الثاني,,,0,,,,,,
created_stop_2619,Stop 2619,32.063577,35.839173,,شارع الملك عبدالله بن الحسين الثاني,,,0,,,,,,
created_stop_2620,Stop 2620,32.065624,35.838587,,شارع الملك عبدالله بن الحسين الثاني,,,0,,,,,,
created_stop_2621,Stop 2621,31.959698,35.934374,,مسجد  حطين,,,0,,,,,,
created_stop_2622,Stop 2622,31.961839,35.934646,,,,,0,,,,,,
created_stop_2623,Stop 2623,31.964021,35.93464,,,,,0,,,,,,
created_stop_2624,Stop 2624,31.965281,35.933185,,,,,0,,,,,,
created_stop_2625,Stop 2625,31.965951,35.931524,,,,,0,,,,,,
created_stop_2626,Stop 2626,31.964564,35.930707,,,,,0,,,,,,
created_stop_2627,Stop 2627,31.963061,35.929835,,,,,0,,,,,,
created_stop_2628,Stop 2628,31.963808,35.928205,,,,,0,,,,,,
created_stop_2629,Stop 2629,31.96534,35.926986,,,,,0,,,,,,
created_stop_2630,Stop 2630,31.967401,35.926364,,,,,0,,,,,,
created_stop_2631,Stop 2631,31.969463,35.926846,,,,,0,,,,,,
created_stop_2632,Stop 2632,31.97082,35.926001,,شارع الأردن,,,0,,,,,,
created_stop_2633,Stop 2633,31.956565,35.937139,,شارع يوسف محمد الدرابكة,,,0,,,,,,
created_stop_2634,Stop 2634,31.987107,35.929998,,شارع أبو قتادة,,,0,,,,,,
created_stop_2635,Stop 2635,31.987284,35.928204,,شارع شرحبيل بن حسنة,,,0,,,,,,
created_stop_2636,Stop 2636,31.987457,35.92641,,,,,0,,,,,,
created_stop_2637,Stop 2637,31.987791,35.922821,,شارع طه الهاشمي,,,0,,,,,,
created_stop_2638,Stop 2638,31.987966,35.921027,,شارع شرحبيل بن حسنة,,,0,,,,,,
created_stop_2639,Stop 2639,31.988073,35.91923,,شارع شرحبيل بن حسنة,,,0,,,,,,
created_stop_2640,Stop 2640,31.999549,35.919596,,شارع مكنف الطائي,,,0,,,,,,
created_stop_2641,Stop 2641,32.000622,35.920232,,شارع زيد الكروم,,,0,,,,,,
created_stop_2642,Stop 2642,32.007505,35.953325,,شارع طبربور,,,0,,,,,,